{"type":"FeatureCollection","features":[{"type":"Feature","properties":{"OBJECTID":222374669,"ID":63,"ADDRESS":"Ward Circle / American University","TERMINAL_NUMBER":"31301","LATITUDE":38.938736,"LONGITUDE":-77.087171,"INSTALLED":"YES","LOCKED":"NO","INSTALL_DATE":null,"REMOVAL_DATE":null,"TEMPORARY_INSTALL":"NO","NUMBER_OF_BIKES":5,"NUMBER_OF_EMPTY_DOCKS":10,"X":392442.5577893,"Y":141208.93151752,"SE_ANNO_CAD_DATA":null,"OWNER":"DC"},"geometry":{"type":"Point","coordinates":[-77.08717331278443,38.93874379255922]}},{"type":"Feature","properties":{"OBJECTID":222374670,"ID":64,"ADDRESS":"Wisconsin Ave & Newark St NW","TERMINAL_NUMBER":"31302","LATITUDE":38.934881,"LONGITUDE":-77.072755,"INSTALLED":"YES","LOCKED":"NO","INSTALL_DATE":null,"REMOVAL_DATE":null,"TEMPORARY_INSTALL":"NO","NUMBER_OF_BIKES":0,"NUMBER_OF_EMPTY_DOCKS":16,"X":393692.03675799,"Y":140779.89807813,"SE_ANNO_CAD_DATA":null,"OWNER":"DC"},"geometry":{"type":"Point","coordinates":[-77.07275730841913,38.93488879233874]}},{"type":"Feature","properties":{"OBJECTID":222374671,"ID":65,"ADDRESS":"14th St Heights / 14th & Crittenden St NW","TERMINAL_NUMBER":"31402","LATITUDE":38.947773999999995,"LONGITUDE":-77.03281799999999,"INSTALLED":"YES","LOCKED":"NO","INSTALL_DATE":null,"REMOVAL_DATE":null,"TEMPORARY_INSTALL":"NO","NUMBER_OF_BIKES":6,"NUMBER_OF_EMPTY_DOCKS":5,"X":397155.14643993,"Y":142209.13309952,"SE_ANNO_CAD_DATA":null,"OWNER":"DC"},"geometry":{"type":"Point","coordinates":[-77.03282029670791,38.94778179679872]}},{"type":"Feature","properties":{"OBJECTID":222374672,"ID":66,"ADDRESS":"Anacostia Library","TERMINAL_NUMBER":"31804","LATITUDE":38.865784,"LONGITUDE":-76.97840000000001,"INSTALLED":"YES","LOCKED":"NO","INSTALL_DATE":null,"REMOVAL_DATE":null,"TEMPORARY_INSTALL":"NO","NUMBER_OF_BIKES":10,"NUMBER_OF_EMPTY_DOCKS":1,"X":401874.56617125,"Y":133107.28439427,"SE_ANNO_CAD_DATA":null,"OWNER":"DC"},"geometry":{"type":"Point","coordinates":[-76.97840227453909,38.865791781891055]}},{"type":"Feature","properties":{"OBJECTID":222374673,"ID":67,"ADDRESS":"Pennsylvania & Minnesota Ave SE","TERMINAL_NUMBER":"31805","LATITUDE":38.873056999999996,"LONGITUDE":-76.971015,"INSTALLED":"YES","LOCKED":"NO","INSTALL_DATE":null,"REMOVAL_DATE":null,"TEMPORARY_INSTALL":"NO","NUMBER_OF_BIKES":7,"NUMBER_OF_EMPTY_DOCKS":4,"X":402515.22051118,"Y":133914.81891889,"SE_ANNO_CAD_DATA":null,"OWNER":"DC"},"geometry":{"type":"Point","coordinates":[-76.97101727299794,38.87306478397516]}},{"type":"Feature","properties":{"OBJECTID":222374674,"ID":68,"ADDRESS":"Eastern Market / 7th & North Carolina Ave SE","TERMINAL_NUMBER":"31610","LATITUDE":38.886952,"LONGITUDE":-76.99680599999999,"INSTALLED":"YES","LOCKED":"NO","INSTALL_DATE":null,"REMOVAL_DATE":null,"TEMPORARY_INSTALL":"NO","NUMBER_OF_BIKES":0,"NUMBER_OF_EMPTY_DOCKS":14,"X":400277.11058153,"Y":135456.87541854,"SE_ANNO_CAD_DATA":null,"OWNER":"DC"},"geometry":{"type":"Point","coordinates":[-76.99680828196654,38.88695978582247]}},{"type":"Feature","properties":{"OBJECTID":222374675,"ID":69,"ADDRESS":"14th St & New York Ave NW","TERMINAL_NUMBER":"31216","LATITUDE":38.899632,"LONGITUDE":-77.031686,"INSTALLED":"YES","LOCKED":"NO","INSTALL_DATE":null,"REMOVAL_DATE":null,"TEMPORARY_INSTALL":"NO","NUMBER_OF_BIKES":22,"NUMBER_OF_EMPTY_DOCKS":1,"X":397251.41977838,"Y":136864.92754697,"SE_ANNO_CAD_DATA":null,"OWNER":"DC"},"geometry":{"type":"Point","coordinates":[-77.03168829370962,38.89963978704901]}},{"type":"Feature","properties":{"OBJECTID":222374676,"ID":70,"ADDRESS":"Benning Branch Library","TERMINAL_NUMBER":"31705","LATITUDE":38.894,"LONGITUDE":-76.947974,"INSTALLED":"YES","LOCKED":"NO","INSTALL_DATE":null,"REMOVAL_DATE":null,"TEMPORARY_INSTALL":"NO","NUMBER_OF_BIKES":5,"NUMBER_OF_EMPTY_DOCKS":6,"X":404513.31564725,"Y":136240.53983015,"SE_ANNO_CAD_DATA":null,"OWNER":"DC"},"geometry":{"type":"Point","coordinates":[-76.94797626722425,38.89400778873204]}},{"type":"Feature","properties":{"OBJECTID":222374677,"ID":71,"ADDRESS":"USDA / 12th & C St SW","TERMINAL_NUMBER":"31217","LATITUDE":38.886277,"LONGITUDE":-77.02824199999999,"INSTALLED":"YES","LOCKED":"NO","INSTALL_DATE":null,"REMOVAL_DATE":null,"TEMPORARY_INSTALL":"NO","NUMBER_OF_BIKES":22,"NUMBER_OF_EMPTY_DOCKS":14,"X":397549.70852812,"Y":135382.31936195,"SE_ANNO_CAD_DATA":null,"OWNER":"DC"},"geometry":{"type":"Point","coordinates":[-77.02824429181884,38.8862847844616]}},{"type":"Feature","properties":{"OBJECTID":222374678,"ID":73,"ADDRESS":"12th & Newton St NE","TERMINAL_NUMBER":"31501","LATITUDE":38.933668,"LONGITUDE":-76.991016,"INSTALLED":"YES","LOCKED":"NO","INSTALL_DATE":null,"REMOVAL_DATE":null,"TEMPORARY_INSTALL":"NO","NUMBER_OF_BIKES":2,"NUMBER_OF_EMPTY_DOCKS":9,"X":400778.93906675,"Y":140642.76917646,"SE_ANNO_CAD_DATA":null,"OWNER":"DC"},"geometry":{"type":"Point","coordinates":[-76.99101828284468,38.93367579538676]}},{"type":"Feature","properties":{"OBJECTID":222374679,"ID":74,"ADDRESS":"US Dept of State / Virginia Ave & 21st St NW","TERMINAL_NUMBER":"31220","LATITUDE":38.894919,"LONGITUDE":-77.046587,"INSTALLED":"YES","LOCKED":"NO","INSTALL_DATE":null,"REMOVAL_DATE":null,"TEMPORARY_INSTALL":"NO","NUMBER_OF_BIKES":13,"NUMBER_OF_EMPTY_DOCKS":0,"X":395958.57590909,"Y":136342.30123407,"SE_ANNO_CAD_DATA":null,"OWNER":"DC"},"geometry":{"type":"Point","coordinates":[-77.04658929740656,38.894926785546566]}},{"type":"Feature","properties":{"OBJECTID":222374680,"ID":75,"ADDRESS":"L'Enfant Plaza / 7th & C St SW","TERMINAL_NUMBER":"31218","LATITUDE":38.886266,"LONGITUDE":-77.022241,"INSTALLED":"YES","LOCKED":"NO","INSTALL_DATE":null,"REMOVAL_DATE":null,"TEMPORARY_INSTALL":"NO","NUMBER_OF_BIKES":1,"NUMBER_OF_EMPTY_DOCKS":14,"X":398070.35828347,"Y":135380.95431573,"SE_ANNO_CAD_DATA":null,"OWNER":"DC"},"geometry":{"type":"Point","coordinates":[-77.0222432892909,38.88627378453658]}},{"type":"Feature","properties":{"OBJECTID":222374681,"ID":76,"ADDRESS":"10th St & Constitution Ave NW","TERMINAL_NUMBER":"31219","LATITUDE":38.893028,"LONGITUDE":-77.02601299999999,"INSTALLED":"YES","LOCKED":"NO","INSTALL_DATE":null,"REMOVAL_DATE":null,"TEMPORARY_INSTALL":"NO","NUMBER_OF_BIKES":24,"NUMBER_OF_EMPTY_DOCKS":0,"X":397743.31133834,"Y":136131.67560302,"SE_ANNO_CAD_DATA":null,"OWNER":"DC"},"geometry":{"type":"Point","coordinates":[-77.02601529151056,38.893035785986854]}},{"type":"Feature","properties":{"OBJECTID":222374682,"ID":77,"ADDRESS":"Kennedy Center","TERMINAL_NUMBER":"31211","LATITUDE":38.897293,"LONGITUDE":-77.05557,"INSTALLED":"YES","LOCKED":"NO","INSTALL_DATE":null,"REMOVAL_DATE":null,"TEMPORARY_INSTALL":"NO","NUMBER_OF_BIKES":11,"NUMBER_OF_EMPTY_DOCKS":3,"X":395179.46081279,"Y":136606.27005869,"SE_ANNO_CAD_DATA":null,"OWNER":"DC"},"geometry":{"type":"Point","coordinates":[-77.05557230067917,38.897300785580654]}},{"type":"Feature","properties":{"OBJECTID":222374683,"ID":78,"ADDRESS":"Eastern Market Metro / Pennsylvania Ave & 7th St SE","TERMINAL_NUMBER":"31613","LATITUDE":38.884,"LONGITUDE":-76.995397,"INSTALLED":"YES","LOCKED":"NO","INSTALL_DATE":null,"REMOVAL_DATE":null,"TEMPORARY_INSTALL":"NO","NUMBER_OF_BIKES":0,"NUMBER_OF_EMPTY_DOCKS":19,"X":400399.37156595,"Y":135129.1858182,"SE_ANNO_CAD_DATA":null,"OWNER":"DC"},"geometry":{"type":"Point","coordinates":[-76.99539928116825,38.88400778505716]}},{"type":"Feature","properties":{"OBJECTID":222374684,"ID":79,"ADDRESS":"18th & M St NW","TERMINAL_NUMBER":"31221","LATITUDE":38.905066999999995,"LONGITUDE":-77.04177899999999,"INSTALLED":"YES","LOCKED":"NO","INSTALL_DATE":null,"REMOVAL_DATE":null,"TEMPORARY_INSTALL":"NO","NUMBER_OF_BIKES":22,"NUMBER_OF_EMPTY_DOCKS":2,"X":396376.18562535,"Y":137468.60859132,"SE_ANNO_CAD_DATA":null,"OWNER":"DC"},"geometry":{"type":"Point","coordinates":[-77.04178129686103,38.90507478736883]}},{"type":"Feature","properties":{"OBJECTID":222374685,"ID":80,"ADDRESS":"Tenleytown / Wisconsin Ave & Albemarle St NW","TERMINAL_NUMBER":"31303","LATITUDE":38.947607,"LONGITUDE":-77.079382,"INSTALLED":"YES","LOCKED":"NO","INSTALL_DATE":null,"REMOVAL_DATE":null,"TEMPORARY_INSTALL":"NO","NUMBER_OF_BIKES":0,"NUMBER_OF_EMPTY_DOCKS":15,"X":393118.69490052,"Y":142193.07513516,"SE_ANNO_CAD_DATA":null,"OWNER":"DC"},"geometry":{"type":"Point","coordinates":[-77.07938431146547,38.94761479470301]}},{"type":"Feature","properties":{"OBJECTID":222374686,"ID":81,"ADDRESS":"13th & H St NE","TERMINAL_NUMBER":"31611","LATITUDE":38.900022,"LONGITUDE":-76.988422,"INSTALLED":"YES","LOCKED":"NO","INSTALL_DATE":null,"REMOVAL_DATE":null,"TEMPORARY_INSTALL":"NO","NUMBER_OF_BIKES":0,"NUMBER_OF_EMPTY_DOCKS":25,"X":401004.32015331,"Y":136907.80734764,"SE_ANNO_CAD_DATA":null,"OWNER":"DC"},"geometry":{"type":"Point","coordinates":[-76.9884242802596,38.90002978884685]}},{"type":"Feature","properties":{"OBJECTID":222374687,"ID":82,"ADDRESS":"5th & F St NW","TERMINAL_NUMBER":"31620","LATITUDE":38.897222,"LONGITUDE":-77.019347,"INSTALLED":"YES","LOCKED":"NO","INSTALL_DATE":null,"REMOVAL_DATE":null,"TEMPORARY_INSTALL":"NO","NUMBER_OF_BIKES":9,"NUMBER_OF_EMPTY_DOCKS":20,"X":398321.70110602,"Y":136597.09913431,"SE_ANNO_CAD_DATA":null,"OWNER":"DC"},"geometry":{"type":"Point","coordinates":[-77.01934928917419,38.89722978679946]}},{"type":"Feature","properties":{"OBJECTID":222374688,"ID":83,"ADDRESS":"New York Ave & 15th St NW","TERMINAL_NUMBER":"31222","LATITUDE":38.899032,"LONGITUDE":-77.033354,"INSTALLED":"YES","LOCKED":"NO","INSTALL_DATE":null,"REMOVAL_DATE":null,"TEMPORARY_INSTALL":"NO","NUMBER_OF_BIKES":12,"NUMBER_OF_EMPTY_DOCKS":5,"X":397106.70593945,"Y":136798.37429303,"SE_ANNO_CAD_DATA":null,"OWNER":"DC"},"geometry":{"type":"Point","coordinates":[-77.03335629388769,38.899039786901426]}},{"type":"Feature","properties":{"OBJECTID":222374689,"ID":84,"ADDRESS":"Convention Center / 7th & M St NW","TERMINAL_NUMBER":"31223","LATITUDE":38.905736999999995,"LONGITUDE":-77.02226999999999,"INSTALLED":"YES","LOCKED":"NO","INSTALL_DATE":null,"REMOVAL_DATE":null,"TEMPORARY_INSTALL":"NO","NUMBER_OF_BIKES":2,"NUMBER_OF_EMPTY_DOCKS":19,"X":398068.36951337,"Y":137542.39041117,"SE_ANNO_CAD_DATA":null,"OWNER":"DC"},"geometry":{"type":"Point","coordinates":[-77.02227229097747,38.905744788728526]}},{"type":"Feature","properties":{"OBJECTID":222374690,"ID":85,"ADDRESS":"Harvard St & Adams Mill Rd NW","TERMINAL_NUMBER":"31112","LATITUDE":38.927872,"LONGITUDE":-77.043358,"INSTALLED":"YES","LOCKED":"NO","INSTALL_DATE":null,"REMOVAL_DATE":null,"TEMPORARY_INSTALL":"NO","NUMBER_OF_BIKES":2,"NUMBER_OF_EMPTY_DOCKS":13,"X":396240.42917895,"Y":140000.2175631,"SE_ANNO_CAD_DATA":null,"OWNER":"DC"},"geometry":{"type":"Point","coordinates":[-77.04336029864521,38.92787979216072]}},{"type":"Feature","properties":{"OBJECTID":222374691,"ID":86,"ADDRESS":"19th & L St NW","TERMINAL_NUMBER":"31224","LATITUDE":38.903407,"LONGITUDE":-77.04364799999999,"INSTALLED":"YES","LOCKED":"NO","INSTALL_DATE":null,"REMOVAL_DATE":null,"TEMPORARY_INSTALL":"NO","NUMBER_OF_BIKES":12,"NUMBER_OF_EMPTY_DOCKS":1,"X":396213.98476874,"Y":137284.41101743,"SE_ANNO_CAD_DATA":null,"OWNER":"DC"},"geometry":{"type":"Point","coordinates":[-77.04365029755351,38.9034147870669]}},{"type":"Feature","properties":{"OBJECTID":222374692,"ID":87,"ADDRESS":"C & O Canal & Wisconsin Ave NW","TERMINAL_NUMBER":"31225","LATITUDE":38.903749999999995,"LONGITUDE":-77.06269,"INSTALLED":"YES","LOCKED":"NO","INSTALL_DATE":null,"REMOVAL_DATE":null,"TEMPORARY_INSTALL":"NO","NUMBER_OF_BIKES":12,"NUMBER_OF_EMPTY_DOCKS":8,"X":394562.31341761,"Y":137323.44877775,"SE_ANNO_CAD_DATA":null,"OWNER":"DC"},"geometry":{"type":"Point","coordinates":[-77.06269230305774,38.90375778633244]}},{"type":"Feature","properties":{"OBJECTID":222374693,"ID":88,"ADDRESS":"Maine Ave & 7th St SW","TERMINAL_NUMBER":"31609","LATITUDE":38.878693999999996,"LONGITUDE":-77.023054,"INSTALLED":"YES","LOCKED":"NO","INSTALL_DATE":null,"REMOVAL_DATE":null,"TEMPORARY_INSTALL":"NO","NUMBER_OF_BIKES":1,"NUMBER_OF_EMPTY_DOCKS":16,"X":397999.60967342,"Y":134540.4217425,"SE_ANNO_CAD_DATA":null,"OWNER":"DC"},"geometry":{"type":"Point","coordinates":[-77.02305628925444,38.8787017830753]}},{"type":"Feature","properties":{"OBJECTID":222374694,"ID":89,"ADDRESS":"D St & Maryland Ave NE","TERMINAL_NUMBER":"31612","LATITUDE":38.894757999999996,"LONGITUDE":-76.997114,"INSTALLED":"YES","LOCKED":"NO","INSTALL_DATE":null,"REMOVAL_DATE":null,"TEMPORARY_INSTALL":"NO","NUMBER_OF_BIKES":0,"NUMBER_OF_EMPTY_DOCKS":22,"X":400250.36118988,"Y":136323.40169319,"SE_ANNO_CAD_DATA":null,"OWNER":"DC"},"geometry":{"type":"Point","coordinates":[-76.9971162823466,38.894765787163585]}},{"type":"Feature","properties":{"OBJECTID":222374695,"ID":90,"ADDRESS":"34th St & Wisconsin Ave NW","TERMINAL_NUMBER":"31226","LATITUDE":38.916441999999996,"LONGITUDE":-77.0682,"INSTALLED":"YES","LOCKED":"NO","INSTALL_DATE":null,"REMOVAL_DATE":null,"TEMPORARY_INSTALL":"NO","NUMBER_OF_BIKES":0,"NUMBER_OF_EMPTY_DOCKS":9,"X":394085.43254774,"Y":138732.70732736,"SE_ANNO_CAD_DATA":null,"OWNER":"DC"},"geometry":{"type":"Point","coordinates":[-77.06820230560903,38.916449788800975]}},{"type":"Feature","properties":{"OBJECTID":222374696,"ID":92,"ADDRESS":"8th & H St NW","TERMINAL_NUMBER":"31228","LATITUDE":38.8997,"LONGITUDE":-77.02308599999999,"INSTALLED":"YES","LOCKED":"NO","INSTALL_DATE":null,"REMOVAL_DATE":null,"TEMPORARY_INSTALL":"NO","NUMBER_OF_BIKES":10,"NUMBER_OF_EMPTY_DOCKS":23,"X":397997.42273853,"Y":136872.25229554,"SE_ANNO_CAD_DATA":null,"OWNER":"DC"},"geometry":{"type":"Point","coordinates":[-77.02308829057642,38.89970778739645]}},{"type":"Feature","properties":{"OBJECTID":222374697,"ID":93,"ADDRESS":"10th & Monroe St NE","TERMINAL_NUMBER":"31504","LATITUDE":38.932514,"LONGITUDE":-76.99288899999999,"INSTALLED":"YES","LOCKED":"NO","INSTALL_DATE":null,"REMOVAL_DATE":null,"TEMPORARY_INSTALL":"NO","NUMBER_OF_BIKES":0,"NUMBER_OF_EMPTY_DOCKS":7,"X":400616.55446976,"Y":140514.65083001,"SE_ANNO_CAD_DATA":null,"OWNER":"DC"},"geometry":{"type":"Point","coordinates":[-76.99289128295987,38.932521794827146]}},{"type":"Feature","properties":{"OBJECTID":222374698,"ID":94,"ADDRESS":"Eckington Pl & Q St NE","TERMINAL_NUMBER":"31505","LATITUDE":38.910972,"LONGITUDE":-77.00495,"INSTALLED":"YES","LOCKED":"NO","INSTALL_DATE":null,"REMOVAL_DATE":null,"TEMPORARY_INSTALL":"NO","NUMBER_OF_BIKES":5,"NUMBER_OF_EMPTY_DOCKS":17,"X":399570.68391328,"Y":138123.29427771,"SE_ANNO_CAD_DATA":null,"OWNER":"DC"},"geometry":{"type":"Point","coordinates":[-77.00495228546991,38.910979789943084]}},{"type":"Feature","properties":{"OBJECTID":222374699,"ID":95,"ADDRESS":"6th & H St NE","TERMINAL_NUMBER":"31615","LATITUDE":38.899972,"LONGITUDE":-76.998347,"INSTALLED":"YES","LOCKED":"NO","INSTALL_DATE":null,"REMOVAL_DATE":null,"TEMPORARY_INSTALL":"NO","NUMBER_OF_BIKES":0,"NUMBER_OF_EMPTY_DOCKS":22,"X":400143.38766466,"Y":136902.19455674,"SE_ANNO_CAD_DATA":null,"OWNER":"DC"},"geometry":{"type":"Point","coordinates":[-76.99834928275789,38.89997978827245]}},{"type":"Feature","properties":{"OBJECTID":222374700,"ID":96,"ADDRESS":"3rd & H St NE","TERMINAL_NUMBER":"31616","LATITUDE":38.900411999999996,"LONGITUDE":-77.001949,"INSTALLED":"YES","LOCKED":"NO","INSTALL_DATE":null,"REMOVAL_DATE":null,"TEMPORARY_INSTALL":"NO","NUMBER_OF_BIKES":4,"NUMBER_OF_EMPTY_DOCKS":15,"X":399830.93718412,"Y":136951.03859198,"SE_ANNO_CAD_DATA":null,"OWNER":"DC"},"geometry":{"type":"Point","coordinates":[-77.00195128413083,38.90041978790951]}},{"type":"Feature","properties":{"OBJECTID":222374701,"ID":97,"ADDRESS":"Bladensburg Rd & Benning Rd NE","TERMINAL_NUMBER":"31617","LATITUDE":38.900413,"LONGITUDE":-76.982872,"INSTALLED":"YES","LOCKED":"NO","INSTALL_DATE":null,"REMOVAL_DATE":null,"TEMPORARY_INSTALL":"NO","NUMBER_OF_BIKES":2,"NUMBER_OF_EMPTY_DOCKS":11,"X":401485.74030431,"Y":136951.28717624,"SE_ANNO_CAD_DATA":null,"OWNER":"DC"},"geometry":{"type":"Point","coordinates":[-76.98287427813412,38.900420788987375]}},{"type":"Feature","properties":{"OBJECTID":222374702,"ID":98,"ADDRESS":"4th & East Capitol St NE","TERMINAL_NUMBER":"31618","LATITUDE":38.889955,"LONGITUDE":-77.000349,"INSTALLED":"YES","LOCKED":"NO","INSTALL_DATE":null,"REMOVAL_DATE":null,"TEMPORARY_INSTALL":"NO","NUMBER_OF_BIKES":0,"NUMBER_OF_EMPTY_DOCKS":11,"X":399969.72212823,"Y":135790.22701798,"SE_ANNO_CAD_DATA":null,"OWNER":"DC"},"geometry":{"type":"Point","coordinates":[-77.0003512830709,38.88996278596357]}},{"type":"Feature","properties":{"OBJECTID":222374703,"ID":99,"ADDRESS":"Lincoln Park / 13th & East Capitol St NE","TERMINAL_NUMBER":"31619","LATITUDE":38.890460999999995,"LONGITUDE":-76.988355,"INSTALLED":"YES","LOCKED":"NO","INSTALL_DATE":null,"REMOVAL_DATE":null,"TEMPORARY_INSTALL":"NO","NUMBER_OF_BIKES":5,"NUMBER_OF_EMPTY_DOCKS":20,"X":401010.26737857,"Y":135846.46135466,"SE_ANNO_CAD_DATA":null,"OWNER":"DC"},"geometry":{"type":"Point","coordinates":[-76.98835727937052,38.890468786857504]}},{"type":"Feature","properties":{"OBJECTID":222374704,"ID":100,"ADDRESS":"Branch & Pennsylvania Ave SE","TERMINAL_NUMBER":"31701","LATITUDE":38.8692,"LONGITUDE":-76.9599,"INSTALLED":"YES","LOCKED":"NO","INSTALL_DATE":null,"REMOVAL_DATE":null,"TEMPORARY_INSTALL":"NO","NUMBER_OF_BIKES":5,"NUMBER_OF_EMPTY_DOCKS":5,"X":403479.93073282,"Y":133487.02816607,"SE_ANNO_CAD_DATA":null,"OWNER":"DC"},"geometry":{"type":"Point","coordinates":[-76.95990226897491,38.869207783635126]}},{"type":"Feature","properties":{"OBJECTID":222374705,"ID":101,"ADDRESS":"13th & D St NE","TERMINAL_NUMBER":"31622","LATITUDE":38.894832,"LONGITUDE":-76.987633,"INSTALLED":"YES","LOCKED":"NO","INSTALL_DATE":null,"REMOVAL_DATE":null,"TEMPORARY_INSTALL":"NO","NUMBER_OF_BIKES":0,"NUMBER_OF_EMPTY_DOCKS":27,"X":401072.83909032,"Y":136331.6849909,"SE_ANNO_CAD_DATA":null,"OWNER":"DC"},"geometry":{"type":"Point","coordinates":[-76.98763527969159,38.894839787664914]}},{"type":"Feature","properties":{"OBJECTID":222374706,"ID":102,"ADDRESS":"New Hampshire Ave & T St NW","TERMINAL_NUMBER":"31229","LATITUDE":38.91554,"LONGITUDE":-77.03818,"INSTALLED":"YES","LOCKED":"NO","INSTALL_DATE":null,"REMOVAL_DATE":null,"TEMPORARY_INSTALL":"NO","NUMBER_OF_BIKES":0,"NUMBER_OF_EMPTY_DOCKS":22,"X":396688.84082399,"Y":138631.06089313,"SE_ANNO_CAD_DATA":null,"OWNER":"DC"},"geometry":{"type":"Point","coordinates":[-77.03818229650919,38.915547789710665]}},{"type":"Feature","properties":{"OBJECTID":222374707,"ID":103,"ADDRESS":"Metro Center / 12th & G St NW","TERMINAL_NUMBER":"31230","LATITUDE":38.898364,"LONGITUDE":-77.027869,"INSTALLED":"YES","LOCKED":"NO","INSTALL_DATE":null,"REMOVAL_DATE":null,"TEMPORARY_INSTALL":"NO","NUMBER_OF_BIKES":23,"NUMBER_OF_EMPTY_DOCKS":16,"X":397582.47982913,"Y":136724.06141167,"SE_ANNO_CAD_DATA":null,"OWNER":"DC"},"geometry":{"type":"Point","coordinates":[-77.02787129230813,38.898371787028516]}},{"type":"Feature","properties":{"OBJECTID":222374708,"ID":104,"ADDRESS":"14th & D St NW / Ronald Reagan Building","TERMINAL_NUMBER":"31231","LATITUDE":38.894514,"LONGITUDE":-77.031617,"INSTALLED":"YES","LOCKED":"NO","INSTALL_DATE":null,"REMOVAL_DATE":null,"TEMPORARY_INSTALL":"NO","NUMBER_OF_BIKES":23,"NUMBER_OF_EMPTY_DOCKS":0,"X":397257.20836553,"Y":136296.78677707,"SE_ANNO_CAD_DATA":null,"OWNER":"DC"},"geometry":{"type":"Point","coordinates":[-77.03161929293897,38.89452178563578]}},{"type":"Feature","properties":{"OBJECTID":222374709,"ID":107,"ADDRESS":"20th & O St NW / Dupont South","TERMINAL_NUMBER":"31234","LATITUDE":38.908905,"LONGITUDE":-77.04478,"INSTALLED":"YES","LOCKED":"NO","INSTALL_DATE":null,"REMOVAL_DATE":null,"TEMPORARY_INSTALL":"NO","NUMBER_OF_BIKES":0,"NUMBER_OF_EMPTY_DOCKS":17,"X":396116.0947985,"Y":137894.78124868,"SE_ANNO_CAD_DATA":null,"OWNER":"DC"},"geometry":{"type":"Point","coordinates":[-77.04478229786487,38.908912788302224]}},{"type":"Feature","properties":{"OBJECTID":222374710,"ID":108,"ADDRESS":"4th & D St NW / Judiciary Square","TERMINAL_NUMBER":"31621","LATITUDE":38.895344,"LONGITUDE":-77.016106,"INSTALLED":"YES","LOCKED":"NO","INSTALL_DATE":null,"REMOVAL_DATE":null,"TEMPORARY_INSTALL":"NO","NUMBER_OF_BIKES":12,"NUMBER_OF_EMPTY_DOCKS":3,"X":398602.81213383,"Y":136388.57162835,"SE_ANNO_CAD_DATA":null,"OWNER":"DC"},"geometry":{"type":"Point","coordinates":[-77.01610828837097,38.895351786595185]}},{"type":"Feature","properties":{"OBJECTID":222374711,"ID":109,"ADDRESS":"19th St & Constitution Ave NW","TERMINAL_NUMBER":"31235","LATITUDE":38.8923,"LONGITUDE":-77.0436,"INSTALLED":"YES","LOCKED":"NO","INSTALL_DATE":null,"REMOVAL_DATE":null,"TEMPORARY_INSTALL":"NO","NUMBER_OF_BIKES":11,"NUMBER_OF_EMPTY_DOCKS":20,"X":396217.55940232,"Y":136051.44360649,"SE_ANNO_CAD_DATA":null,"OWNER":"DC"},"geometry":{"type":"Point","coordinates":[-77.04360229695895,38.89230778515282]}},{"type":"Feature","properties":{"OBJECTID":222374712,"ID":110,"ADDRESS":"37th & O St NW / Georgetown University","TERMINAL_NUMBER":"31236","LATITUDE":38.90774,"LONGITUDE":-77.071652,"INSTALLED":"YES","LOCKED":"NO","INSTALL_DATE":null,"REMOVAL_DATE":null,"TEMPORARY_INSTALL":"NO","NUMBER_OF_BIKES":12,"NUMBER_OF_EMPTY_DOCKS":10,"X":393785.30362802,"Y":137766.94307056,"SE_ANNO_CAD_DATA":null,"OWNER":"DC"},"geometry":{"type":"Point","coordinates":[-77.07165430635617,38.90774778697927]}},{"type":"Feature","properties":{"OBJECTID":222374713,"ID":111,"ADDRESS":"11th & H St NE","TERMINAL_NUMBER":"31614","LATITUDE":38.899983,"LONGITUDE":-76.991383,"INSTALLED":"YES","LOCKED":"NO","INSTALL_DATE":null,"REMOVAL_DATE":null,"TEMPORARY_INSTALL":"NO","NUMBER_OF_BIKES":0,"NUMBER_OF_EMPTY_DOCKS":19,"X":400747.47205932,"Y":136903.4496248,"SE_ANNO_CAD_DATA":null,"OWNER":"DC"},"geometry":{"type":"Point","coordinates":[-76.99138528081646,38.89999078848401]}},{"type":"Feature","properties":{"OBJECTID":222374714,"ID":112,"ADDRESS":"25th St & Pennsylvania Ave NW","TERMINAL_NUMBER":"31237","LATITUDE":38.903827,"LONGITUDE":-77.053485,"INSTALLED":"YES","LOCKED":"NO","INSTALL_DATE":null,"REMOVAL_DATE":null,"TEMPORARY_INSTALL":"NO","NUMBER_OF_BIKES":5,"NUMBER_OF_EMPTY_DOCKS":9,"X":395360.75356309,"Y":137331.48834951,"SE_ANNO_CAD_DATA":null,"OWNER":"DC"},"geometry":{"type":"Point","coordinates":[-77.05348730043302,38.90383478717119]}},{"type":"Feature","properties":{"OBJECTID":222374715,"ID":113,"ADDRESS":"Columbus Circle / Union Station","TERMINAL_NUMBER":"31623","LATITUDE":38.89696,"LONGITUDE":-77.00493,"INSTALLED":"YES","LOCKED":"NO","INSTALL_DATE":null,"REMOVAL_DATE":null,"TEMPORARY_INSTALL":"NO","NUMBER_OF_BIKES":13,"NUMBER_OF_EMPTY_DOCKS":35,"X":399572.33452251,"Y":136567.84875416,"SE_ANNO_CAD_DATA":null,"OWNER":"DC"},"geometry":{"type":"Point","coordinates":[-77.00493228514699,38.89696778733027]}},{"type":"Feature","properties":{"OBJECTID":222374716,"ID":114,"ADDRESS":"North Capitol St & F St NW","TERMINAL_NUMBER":"31624","LATITUDE":38.897445999999995,"LONGITUDE":-77.00988799999999,"INSTALLED":"YES","LOCKED":"NO","INSTALL_DATE":null,"REMOVAL_DATE":null,"TEMPORARY_INSTALL":"NO","NUMBER_OF_BIKES":23,"NUMBER_OF_EMPTY_DOCKS":0,"X":399142.24595819,"Y":136621.83352922,"SE_ANNO_CAD_DATA":null,"OWNER":"DC"},"geometry":{"type":"Point","coordinates":[-77.00989028669956,38.89745378701787]}},{"type":"Feature","properties":{"OBJECTID":222374717,"ID":115,"ADDRESS":"11th & M St NW","TERMINAL_NUMBER":"31266","LATITUDE":38.905606999999996,"LONGITUDE":-77.027137,"INSTALLED":"YES","LOCKED":"NO","INSTALL_DATE":null,"REMOVAL_DATE":null,"TEMPORARY_INSTALL":"NO","NUMBER_OF_BIKES":2,"NUMBER_OF_EMPTY_DOCKS":17,"X":397646.21680293,"Y":137528.07359221,"SE_ANNO_CAD_DATA":null,"OWNER":"DC"},"geometry":{"type":"Point","coordinates":[-77.0271392922204,38.90561478801597]}},{"type":"Feature","properties":{"OBJECTID":222374718,"ID":116,"ADDRESS":"36th & Calvert St NW / Glover Park","TERMINAL_NUMBER":"31304","LATITUDE":38.922581,"LONGITUDE":-77.070334,"INSTALLED":"YES","LOCKED":"NO","INSTALL_DATE":null,"REMOVAL_DATE":null,"TEMPORARY_INSTALL":"NO","NUMBER_OF_BIKES":2,"NUMBER_OF_EMPTY_DOCKS":13,"X":393900.88891277,"Y":139414.32818096,"SE_ANNO_CAD_DATA":null,"OWNER":"DC"},"geometry":{"type":"Point","coordinates":[-77.07033630653461,38.922588790151124]}},{"type":"Feature","properties":{"OBJECTID":222374719,"ID":117,"ADDRESS":"14th & G St NW","TERMINAL_NUMBER":"31238","LATITUDE":38.898385,"LONGITUDE":-77.031666,"INSTALLED":"YES","LOCKED":"NO","INSTALL_DATE":null,"REMOVAL_DATE":null,"TEMPORARY_INSTALL":"NO","NUMBER_OF_BIKES":20,"NUMBER_OF_EMPTY_DOCKS":0,"X":397253.10664721,"Y":136726.49998198,"SE_ANNO_CAD_DATA":null,"OWNER":"DC"},"geometry":{"type":"Point","coordinates":[-77.03166829355608,38.89839278682072]}},{"type":"Feature","properties":{"OBJECTID":222374720,"ID":118,"ADDRESS":"Potomac Ave & 35th St S","TERMINAL_NUMBER":"31052","LATITUDE":38.844015,"LONGITUDE":-77.05053699999999,"INSTALLED":"YES","LOCKED":"NO","INSTALL_DATE":null,"REMOVAL_DATE":null,"TEMPORARY_INSTALL":"NO","NUMBER_OF_BIKES":19,"NUMBER_OF_EMPTY_DOCKS":4,"X":395612.7850665,"Y":130691.76225178,"SE_ANNO_CAD_DATA":null,"OWNER":null},"geometry":{"type":"Point","coordinates":[-77.05053929590395,38.844022774968494]}},{"type":"Feature","properties":{"OBJECTID":222374721,"ID":124,"ADDRESS":"Ohio Dr & West Basin Dr SW / MLK & FDR Memorials","TERMINAL_NUMBER":"31240","LATITUDE":38.884119999999996,"LONGITUDE":-77.04657,"INSTALLED":"YES","LOCKED":"NO","INSTALL_DATE":null,"REMOVAL_DATE":null,"TEMPORARY_INSTALL":"NO","NUMBER_OF_BIKES":0,"NUMBER_OF_EMPTY_DOCKS":29,"X":395959.43911633,"Y":135143.52730167,"SE_ANNO_CAD_DATA":null,"OWNER":"DC"},"geometry":{"type":"Point","coordinates":[-77.04657229696922,38.88412778332315]}},{"type":"Feature","properties":{"OBJECTID":222374722,"ID":125,"ADDRESS":"11th & F St NW","TERMINAL_NUMBER":"31262","LATITUDE":38.897856999999995,"LONGITUDE":-77.026975,"INSTALLED":"YES","LOCKED":"NO","INSTALL_DATE":null,"REMOVAL_DATE":null,"TEMPORARY_INSTALL":"NO","NUMBER_OF_BIKES":1,"NUMBER_OF_EMPTY_DOCKS":14,"X":397660.01398863,"Y":136667.7570737,"SE_ANNO_CAD_DATA":null,"OWNER":"DC"},"geometry":{"type":"Point","coordinates":[-77.02697729167592,38.89786478662607]}},{"type":"Feature","properties":{"OBJECTID":222374723,"ID":126,"ADDRESS":"23rd & E St NW","TERMINAL_NUMBER":"31260","LATITUDE":38.896104,"LONGITUDE":-77.049882,"INSTALLED":"YES","LOCKED":"NO","INSTALL_DATE":null,"REMOVAL_DATE":null,"TEMPORARY_INSTALL":"NO","NUMBER_OF_BIKES":18,"NUMBER_OF_EMPTY_DOCKS":0,"X":395672.80643508,"Y":136473.99663923,"SE_ANNO_CAD_DATA":null,"OWNER":"DC"},"geometry":{"type":"Point","coordinates":[-77.04988429880422,38.89611178539071]}},{"type":"Feature","properties":{"OBJECTID":222374724,"ID":127,"ADDRESS":"Lynn & 19th St North","TERMINAL_NUMBER":"31014","LATITUDE":38.897315,"LONGITUDE":-77.070993,"INSTALLED":"YES","LOCKED":"NO","INSTALL_DATE":null,"REMOVAL_DATE":null,"TEMPORARY_INSTALL":"NO","NUMBER_OF_BIKES":12,"NUMBER_OF_EMPTY_DOCKS":18,"X":393841.56164086,"Y":136609.63967085,"SE_ANNO_CAD_DATA":null,"OWNER":null},"geometry":{"type":"Point","coordinates":[-77.07099530566146,38.89732278512484]}},{"type":"Feature","properties":{"OBJECTID":222374725,"ID":128,"ADDRESS":"Rosslyn Metro / Wilson Blvd & Ft Myer Dr","TERMINAL_NUMBER":"31015","LATITUDE":38.894600000000004,"LONGITUDE":-77.072305,"INSTALLED":"YES","LOCKED":"NO","INSTALL_DATE":null,"REMOVAL_DATE":null,"TEMPORARY_INSTALL":"NO","NUMBER_OF_BIKES":3,"NUMBER_OF_EMPTY_DOCKS":15,"X":393727.51072873,"Y":136308.34254655,"SE_ANNO_CAD_DATA":null,"OWNER":null},"geometry":{"type":"Point","coordinates":[-77.07230730547586,38.89460778452236]}},{"type":"Feature","properties":{"OBJECTID":222374726,"ID":129,"ADDRESS":"Clarendon Blvd & Pierce St","TERMINAL_NUMBER":"31016","LATITUDE":38.893437999999996,"LONGITUDE":-77.07638899999999,"INSTALLED":"YES","LOCKED":"NO","INSTALL_DATE":null,"REMOVAL_DATE":null,"TEMPORARY_INSTALL":"NO","NUMBER_OF_BIKES":5,"NUMBER_OF_EMPTY_DOCKS":7,"X":393373.11414719,"Y":136179.63995377,"SE_ANNO_CAD_DATA":null,"OWNER":null},"geometry":{"type":"Point","coordinates":[-77.07639130717692,38.89344578384505]}},{"type":"Feature","properties":{"OBJECTID":222374727,"ID":130,"ADDRESS":"Wilson Blvd & N Uhle St","TERMINAL_NUMBER":"31017","LATITUDE":38.891695999999996,"LONGITUDE":-77.08460000000001,"INSTALLED":"YES","LOCKED":"NO","INSTALL_DATE":null,"REMOVAL_DATE":null,"TEMPORARY_INSTALL":"NO","NUMBER_OF_BIKES":11,"NUMBER_OF_EMPTY_DOCKS":3,"X":392660.61582418,"Y":135986.8924231,"SE_ANNO_CAD_DATA":null,"OWNER":null},"geometry":{"type":"Point","coordinates":[-77.0846023095054,38.89170378346343]}},{"type":"Feature","properties":{"OBJECTID":222374728,"ID":131,"ADDRESS":"N Rhodes & 16th St N","TERMINAL_NUMBER":"31018","LATITUDE":38.892164,"LONGITUDE":-77.079375,"INSTALLED":"YES","LOCKED":"NO","INSTALL_DATE":null,"REMOVAL_DATE":null,"TEMPORARY_INSTALL":"NO","NUMBER_OF_BIKES":1,"NUMBER_OF_EMPTY_DOCKS":8,"X":393113.95026708,"Y":136038.43697471,"SE_ANNO_CAD_DATA":null,"OWNER":null},"geometry":{"type":"Point","coordinates":[-77.0793773079699,38.892171783851]}},{"type":"Feature","properties":{"OBJECTID":222374729,"ID":132,"ADDRESS":"Fairfax Village","TERMINAL_NUMBER":"31706","LATITUDE":38.86559,"LONGITUDE":-76.952103,"INSTALLED":"YES","LOCKED":"NO","INSTALL_DATE":null,"REMOVAL_DATE":null,"TEMPORARY_INSTALL":"NO","NUMBER_OF_BIKES":0,"NUMBER_OF_EMPTY_DOCKS":14,"X":404156.7748465,"Y":133086.6176774,"SE_ANNO_CAD_DATA":null,"OWNER":"DC"},"geometry":{"type":"Point","coordinates":[-76.95210526619667,38.865597783094096]}},{"type":"Feature","properties":{"OBJECTID":222374730,"ID":133,"ADDRESS":"21st St & Constitution Ave NW","TERMINAL_NUMBER":"31261","LATITUDE":38.892458999999995,"LONGITUDE":-77.046567,"INSTALLED":"YES","LOCKED":"NO","INSTALL_DATE":null,"REMOVAL_DATE":null,"TEMPORARY_INSTALL":"NO","NUMBER_OF_BIKES":11,"NUMBER_OF_EMPTY_DOCKS":3,"X":395960.17160973,"Y":136069.22097211,"SE_ANNO_CAD_DATA":null,"OWNER":"DC"},"geometry":{"type":"Point","coordinates":[-77.04656929740155,38.89246678515886]}},{"type":"Feature","properties":{"OBJECTID":222374731,"ID":134,"ADDRESS":"Wilson Blvd & N Edgewood St","TERMINAL_NUMBER":"31019","LATITUDE":38.889,"LONGITUDE":-77.0925,"INSTALLED":"YES","LOCKED":"NO","INSTALL_DATE":null,"REMOVAL_DATE":null,"TEMPORARY_INSTALL":"NO","NUMBER_OF_BIKES":0,"NUMBER_OF_EMPTY_DOCKS":14,"X":391974.9565944,"Y":135688.28027547,"SE_ANNO_CAD_DATA":null,"OWNER":null},"geometry":{"type":"Point","coordinates":[-77.09250231131163,38.889007782265864]}},{"type":"Feature","properties":{"OBJECTID":222374732,"ID":135,"ADDRESS":"Columbia Rd & Belmont St NW","TERMINAL_NUMBER":"31113","LATITUDE":38.920669,"LONGITUDE":-77.04368,"INSTALLED":"YES","LOCKED":"NO","INSTALL_DATE":null,"REMOVAL_DATE":null,"TEMPORARY_INSTALL":"NO","NUMBER_OF_BIKES":6,"NUMBER_OF_EMPTY_DOCKS":11,"X":396212.12597888,"Y":139200.636678,"SE_ANNO_CAD_DATA":null,"OWNER":"DC"},"geometry":{"type":"Point","coordinates":[-77.04368229815967,38.920676790788086]}},{"type":"Feature","properties":{"OBJECTID":222374733,"ID":136,"ADDRESS":"Rhode Island & Connecticut Ave NW","TERMINAL_NUMBER":"31239","LATITUDE":38.905995999999995,"LONGITUDE":-77.039802,"INSTALLED":"YES","LOCKED":"NO","INSTALL_DATE":null,"REMOVAL_DATE":null,"TEMPORARY_INSTALL":"NO","NUMBER_OF_BIKES":23,"NUMBER_OF_EMPTY_DOCKS":0,"X":396547.71101083,"Y":137571.65850828,"SE_ANNO_CAD_DATA":null,"OWNER":"DC"},"geometry":{"type":"Point","coordinates":[-77.03980429642314,38.90600378781498]}},{"type":"Feature","properties":{"OBJECTID":222374734,"ID":137,"ADDRESS":"Thomas Circle","TERMINAL_NUMBER":"31241","LATITUDE":38.9059,"LONGITUDE":-77.0325,"INSTALLED":"YES","LOCKED":"NO","INSTALL_DATE":null,"REMOVAL_DATE":null,"TEMPORARY_INSTALL":"NO","NUMBER_OF_BIKES":3,"NUMBER_OF_EMPTY_DOCKS":29,"X":397181.05762675,"Y":137560.75091601,"SE_ANNO_CAD_DATA":null,"OWNER":"DC"},"geometry":{"type":"Point","coordinates":[-77.03250229403903,38.90590778833626]}},{"type":"Feature","properties":{"OBJECTID":222374735,"ID":138,"ADDRESS":"Wilson Blvd & Franklin Rd","TERMINAL_NUMBER":"31020","LATITUDE":38.8904,"LONGITUDE":-77.08890000000001,"INSTALLED":"YES","LOCKED":"NO","INSTALL_DATE":null,"REMOVAL_DATE":null,"TEMPORARY_INSTALL":"NO","NUMBER_OF_BIKES":0,"NUMBER_OF_EMPTY_DOCKS":10,"X":392287.43385198,"Y":135843.38082737,"SE_ANNO_CAD_DATA":null,"OWNER":null},"geometry":{"type":"Point","coordinates":[-77.08890231036429,38.89040778277814]}},{"type":"Feature","properties":{"OBJECTID":222374736,"ID":139,"ADDRESS":"Clarendon Blvd & N Fillmore St","TERMINAL_NUMBER":"31021","LATITUDE":38.8881,"LONGITUDE":-77.09308,"INSTALLED":"YES","LOCKED":"NO","INSTALL_DATE":null,"REMOVAL_DATE":null,"TEMPORARY_INSTALL":"NO","NUMBER_OF_BIKES":2,"NUMBER_OF_EMPTY_DOCKS":13,"X":391924.53555307,"Y":135588.42446277,"SE_ANNO_CAD_DATA":null,"OWNER":null},"geometry":{"type":"Point","coordinates":[-77.09308231168116,38.88810778206438]}},{"type":"Feature","properties":{"OBJECTID":222374737,"ID":140,"ADDRESS":"Clarendon Metro / Wilson Blvd & N Highland St","TERMINAL_NUMBER":"31022","LATITUDE":38.887859999999996,"LONGITUDE":-77.094875,"INSTALLED":"YES","LOCKED":"NO","INSTALL_DATE":null,"REMOVAL_DATE":null,"TEMPORARY_INSTALL":"NO","NUMBER_OF_BIKES":7,"NUMBER_OF_EMPTY_DOCKS":8,"X":391768.77673525,"Y":135561.94292851,"SE_ANNO_CAD_DATA":null,"OWNER":null},"geometry":{"type":"Point","coordinates":[-77.09487731216417,38.88786778225764]}},{"type":"Feature","properties":{"OBJECTID":222374738,"ID":141,"ADDRESS":"18th St & Pennsylvania Ave NW","TERMINAL_NUMBER":"31242","LATITUDE":38.89968,"LONGITUDE":-77.041539,"INSTALLED":"YES","LOCKED":"NO","INSTALL_DATE":null,"REMOVAL_DATE":null,"TEMPORARY_INSTALL":"NO","NUMBER_OF_BIKES":24,"NUMBER_OF_EMPTY_DOCKS":0,"X":396396.73056387,"Y":136870.59871663,"SE_ANNO_CAD_DATA":null,"OWNER":"DC"},"geometry":{"type":"Point","coordinates":[-77.04154129646875,38.899687786288915]}},{"type":"Feature","properties":{"OBJECTID":222374739,"ID":142,"ADDRESS":"4th & C St SW","TERMINAL_NUMBER":"31243","LATITUDE":38.886372,"LONGITUDE":-77.017701,"INSTALLED":"YES","LOCKED":"NO","INSTALL_DATE":null,"REMOVAL_DATE":null,"TEMPORARY_INSTALL":"NO","NUMBER_OF_BIKES":36,"NUMBER_OF_EMPTY_DOCKS":0,"X":398464.25352264,"Y":135392.63496554,"SE_ANNO_CAD_DATA":null,"OWNER":"DC"},"geometry":{"type":"Point","coordinates":[-77.01770328847928,38.88637978450357]}},{"type":"Feature","properties":{"OBJECTID":222374740,"ID":143,"ADDRESS":"4th & E St SW","TERMINAL_NUMBER":"31244","LATITUDE":38.884119999999996,"LONGITUDE":-77.017445,"INSTALLED":"YES","LOCKED":"NO","INSTALL_DATE":null,"REMOVAL_DATE":null,"TEMPORARY_INSTALL":"NO","NUMBER_OF_BIKES":15,"NUMBER_OF_EMPTY_DOCKS":4,"X":398486.41642165,"Y":135142.64129491,"SE_ANNO_CAD_DATA":null,"OWNER":"DC"},"geometry":{"type":"Point","coordinates":[-77.01744728781858,38.884127784469854]}},{"type":"Feature","properties":{"OBJECTID":222374741,"ID":144,"ADDRESS":"3rd & G St SE","TERMINAL_NUMBER":"31625","LATITUDE":38.881184999999995,"LONGITUDE":-77.001828,"INSTALLED":"YES","LOCKED":"NO","INSTALL_DATE":null,"REMOVAL_DATE":null,"TEMPORARY_INSTALL":"NO","NUMBER_OF_BIKES":4,"NUMBER_OF_EMPTY_DOCKS":13,"X":399841.39039203,"Y":134816.69073244,"SE_ANNO_CAD_DATA":null,"OWNER":"DC"},"geometry":{"type":"Point","coordinates":[-77.0018302831558,38.8811927844592]}},{"type":"Feature","properties":{"OBJECTID":222374742,"ID":145,"ADDRESS":"7th & R St NW / Shaw Library","TERMINAL_NUMBER":"31245","LATITUDE":38.912718999999996,"LONGITUDE":-77.022155,"INSTALLED":"YES","LOCKED":"NO","INSTALL_DATE":null,"REMOVAL_DATE":null,"TEMPORARY_INSTALL":"NO","NUMBER_OF_BIKES":1,"NUMBER_OF_EMPTY_DOCKS":14,"X":398078.53235602,"Y":138317.44722014,"SE_ANNO_CAD_DATA":null,"OWNER":"DC"},"geometry":{"type":"Point","coordinates":[-77.0221572909953,38.912726790172364]}},{"type":"Feature","properties":{"OBJECTID":222374743,"ID":146,"ADDRESS":"9th & Upshur St NW","TERMINAL_NUMBER":"31404","LATITUDE":38.9418,"LONGITUDE":-77.02510000000001,"INSTALLED":"YES","LOCKED":"NO","INSTALL_DATE":null,"REMOVAL_DATE":null,"TEMPORARY_INSTALL":"NO","NUMBER_OF_BIKES":0,"NUMBER_OF_EMPTY_DOCKS":14,"X":397824.00484445,"Y":141545.75347825,"SE_ANNO_CAD_DATA":null,"OWNER":"DC"},"geometry":{"type":"Point","coordinates":[-77.02510229355774,38.941807795850046]}},{"type":"Feature","properties":{"OBJECTID":222374744,"ID":147,"ADDRESS":"1st & Rhode Island Ave NW","TERMINAL_NUMBER":"31506","LATITUDE":38.915417,"LONGITUDE":-77.012289,"INSTALLED":"YES","LOCKED":"NO","INSTALL_DATE":null,"REMOVAL_DATE":null,"TEMPORARY_INSTALL":"NO","NUMBER_OF_BIKES":0,"NUMBER_OF_EMPTY_DOCKS":14,"X":398934.23503524,"Y":138616.78618346,"SE_ANNO_CAD_DATA":null,"OWNER":"DC"},"geometry":{"type":"Point","coordinates":[-77.01229128799194,38.915424790851716]}},{"type":"Feature","properties":{"OBJECTID":222374745,"ID":148,"ADDRESS":"Columbia Rd & Georgia Ave NW","TERMINAL_NUMBER":"31115","LATITUDE":38.928121,"LONGITUDE":-77.02379499999999,"INSTALLED":"YES","LOCKED":"NO","INSTALL_DATE":null,"REMOVAL_DATE":null,"TEMPORARY_INSTALL":"NO","NUMBER_OF_BIKES":0,"NUMBER_OF_EMPTY_DOCKS":19,"X":397936.74344645,"Y":140027.23478731,"SE_ANNO_CAD_DATA":null,"OWNER":"DC"},"geometry":{"type":"Point","coordinates":[-77.02379729276979,38.928128793173464]}},{"type":"Feature","properties":{"OBJECTID":222374746,"ID":149,"ADDRESS":"California St & Florida Ave NW","TERMINAL_NUMBER":"31116","LATITUDE":38.917761,"LONGITUDE":-77.04061999999999,"INSTALLED":"YES","LOCKED":"NO","INSTALL_DATE":null,"REMOVAL_DATE":null,"TEMPORARY_INSTALL":"NO","NUMBER_OF_BIKES":0,"NUMBER_OF_EMPTY_DOCKS":19,"X":396477.34162756,"Y":138877.70174796,"SE_ANNO_CAD_DATA":null,"OWNER":"DC"},"geometry":{"type":"Point","coordinates":[-77.04062229730202,38.91776879024903]}},{"type":"Feature","properties":{"OBJECTID":222374747,"ID":150,"ADDRESS":"Benning Rd & East Capitol St NE / Benning Rd Metro","TERMINAL_NUMBER":"31707","LATITUDE":38.889935,"LONGITUDE":-76.93723,"INSTALLED":"YES","LOCKED":"NO","INSTALL_DATE":null,"REMOVAL_DATE":null,"TEMPORARY_INSTALL":"NO","NUMBER_OF_BIKES":16,"NUMBER_OF_EMPTY_DOCKS":2,"X":405445.68021157,"Y":135789.87902946,"SE_ANNO_CAD_DATA":null,"OWNER":"DC"},"geometry":{"type":"Point","coordinates":[-76.93723226365105,38.88994278820481]}},{"type":"Feature","properties":{"OBJECTID":222374748,"ID":151,"ADDRESS":"3000 Connecticut Ave NW / National Zoo","TERMINAL_NUMBER":"31307","LATITUDE":38.930282,"LONGITUDE":-77.055599,"INSTALLED":"YES","LOCKED":"NO","INSTALL_DATE":null,"REMOVAL_DATE":null,"TEMPORARY_INSTALL":"NO","NUMBER_OF_BIKES":0,"NUMBER_OF_EMPTY_DOCKS":15,"X":395179.17550824,"Y":140268.32354902,"SE_ANNO_CAD_DATA":null,"OWNER":"DC"},"geometry":{"type":"Point","coordinates":[-77.05560130279834,38.93028979231569]}},{"type":"Feature","properties":{"OBJECTID":222374749,"ID":152,"ADDRESS":"Anacostia Ave & Benning Rd NE / River Terrace","TERMINAL_NUMBER":"31708","LATITUDE":38.896544,"LONGITUDE":-76.96012,"INSTALLED":"YES","LOCKED":"NO","INSTALL_DATE":null,"REMOVAL_DATE":null,"TEMPORARY_INSTALL":"NO","NUMBER_OF_BIKES":7,"NUMBER_OF_EMPTY_DOCKS":7,"X":403459.51281234,"Y":136522.41355417,"SE_ANNO_CAD_DATA":null,"OWNER":"DC"},"geometry":{"type":"Point","coordinates":[-76.96012227090408,38.89655178902737]}},{"type":"Feature","properties":{"OBJECTID":222374750,"ID":153,"ADDRESS":"M St & Pennsylvania Ave NW","TERMINAL_NUMBER":"31246","LATITUDE":38.905125999999996,"LONGITUDE":-77.056887,"INSTALLED":"YES","LOCKED":"NO","INSTALL_DATE":null,"REMOVAL_DATE":null,"TEMPORARY_INSTALL":"NO","NUMBER_OF_BIKES":14,"NUMBER_OF_EMPTY_DOCKS":2,"X":395065.75667991,"Y":137475.86623703,"SE_ANNO_CAD_DATA":null,"OWNER":"DC"},"geometry":{"type":"Point","coordinates":[-77.05688930147728,38.905133787193286]}},{"type":"Feature","properties":{"OBJECTID":222374751,"ID":154,"ADDRESS":"15th St & Massachusetts Ave SE","TERMINAL_NUMBER":"31626","LATITUDE":38.887319999999995,"LONGITUDE":-76.983569,"INSTALLED":"YES","LOCKED":"NO","INSTALL_DATE":null,"REMOVAL_DATE":null,"TEMPORARY_INSTALL":"NO","NUMBER_OF_BIKES":8,"NUMBER_OF_EMPTY_DOCKS":6,"X":401425.5417836,"Y":135497.84971905,"SE_ANNO_CAD_DATA":null,"OWNER":"DC"},"geometry":{"type":"Point","coordinates":[-76.98357127731424,38.887327786497515]}},{"type":"Feature","properties":{"OBJECTID":222374752,"ID":155,"ADDRESS":"Congress Heights Metro","TERMINAL_NUMBER":"31806","LATITUDE":38.844711,"LONGITUDE":-76.98782299999999,"INSTALLED":"YES","LOCKED":"NO","INSTALL_DATE":null,"REMOVAL_DATE":null,"TEMPORARY_INSTALL":"NO","NUMBER_OF_BIKES":6,"NUMBER_OF_EMPTY_DOCKS":8,"X":401057.09871953,"Y":130767.87922723,"SE_ANNO_CAD_DATA":null,"OWNER":"DC"},"geometry":{"type":"Point","coordinates":[-76.98782527602748,38.84471877766442]}},{"type":"Feature","properties":{"OBJECTID":222375393,"ID":156,"ADDRESS":"N Quincy St & Glebe Rd","TERMINAL_NUMBER":"31035","LATITUDE":38.876393,"LONGITUDE":-77.10773499999999,"INSTALLED":"YES","LOCKED":"NO","INSTALL_DATE":null,"REMOVAL_DATE":null,"TEMPORARY_INSTALL":"NO","NUMBER_OF_BIKES":1,"NUMBER_OF_EMPTY_DOCKS":10,"X":390651.55922442,"Y":134290.2570428,"SE_ANNO_CAD_DATA":null,"OWNER":null},"geometry":{"type":"Point","coordinates":[-77.10773731534047,38.87640077956133]}},{"type":"Feature","properties":{"OBJECTID":222375394,"ID":157,"ADDRESS":"Barcroft Community Center","TERMINAL_NUMBER":"31033","LATITUDE":38.850336999999996,"LONGITUDE":-77.100989,"INSTALLED":"YES","LOCKED":"NO","INSTALL_DATE":null,"REMOVAL_DATE":null,"TEMPORARY_INSTALL":"NO","NUMBER_OF_BIKES":6,"NUMBER_OF_EMPTY_DOCKS":4,"X":391233.72684756,"Y":131397.18311219,"SE_ANNO_CAD_DATA":null,"OWNER":null},"geometry":{"type":"Point","coordinates":[-77.1009913116278,38.85034477449476]}},{"type":"Feature","properties":{"OBJECTID":222375395,"ID":158,"ADDRESS":"N Veitch  & 20th St N","TERMINAL_NUMBER":"31029","LATITUDE":38.896923,"LONGITUDE":-77.086502,"INSTALLED":"YES","LOCKED":"NO","INSTALL_DATE":null,"REMOVAL_DATE":null,"TEMPORARY_INSTALL":"NO","NUMBER_OF_BIKES":7,"NUMBER_OF_EMPTY_DOCKS":8,"X":392496.15967477,"Y":136567.28510903,"SE_ANNO_CAD_DATA":null,"OWNER":null},"geometry":{"type":"Point","coordinates":[-77.08650431013577,38.89693078446052]}},{"type":"Feature","properties":{"OBJECTID":222375396,"ID":159,"ADDRESS":"10th & K St NW","TERMINAL_NUMBER":"31263","LATITUDE":38.9024,"LONGITUDE":-77.02622,"INSTALLED":"YES","LOCKED":"NO","INSTALL_DATE":null,"REMOVAL_DATE":null,"TEMPORARY_INSTALL":"NO","NUMBER_OF_BIKES":5,"NUMBER_OF_EMPTY_DOCKS":15,"X":397725.65241957,"Y":137172.04739912,"SE_ANNO_CAD_DATA":null,"OWNER":"DC"},"geometry":{"type":"Point","coordinates":[-77.02622229164268,38.90240778745403]}},{"type":"Feature","properties":{"OBJECTID":222375397,"ID":160,"ADDRESS":"Fairfax Dr & Wilson Blvd","TERMINAL_NUMBER":"31023","LATITUDE":38.885801,"LONGITUDE":-77.097745,"INSTALLED":"YES","LOCKED":"NO","INSTALL_DATE":null,"REMOVAL_DATE":null,"TEMPORARY_INSTALL":"NO","NUMBER_OF_BIKES":0,"NUMBER_OF_EMPTY_DOCKS":10,"X":391519.53488356,"Y":135333.64078152,"SE_ANNO_CAD_DATA":null,"OWNER":null},"geometry":{"type":"Point","coordinates":[-77.09774731320044,38.88580878193307]}},{"type":"Feature","properties":{"OBJECTID":222375398,"ID":161,"ADDRESS":"Key Blvd & N Quinn St","TERMINAL_NUMBER":"31027","LATITUDE":38.896355,"LONGITUDE":-77.078408,"INSTALLED":"YES","LOCKED":"NO","INSTALL_DATE":null,"REMOVAL_DATE":null,"TEMPORARY_INSTALL":"NO","NUMBER_OF_BIKES":0,"NUMBER_OF_EMPTY_DOCKS":11,"X":393198.24035826,"Y":136503.59842391,"SE_ANNO_CAD_DATA":null,"OWNER":null},"geometry":{"type":"Point","coordinates":[-77.0784103075352,38.89636278462703]}},{"type":"Feature","properties":{"OBJECTID":222375399,"ID":162,"ADDRESS":"1st & K St SE","TERMINAL_NUMBER":"31628","LATITUDE":38.878854,"LONGITUDE":-77.005727,"INSTALLED":"YES","LOCKED":"NO","INSTALL_DATE":null,"REMOVAL_DATE":null,"TEMPORARY_INSTALL":"NO","NUMBER_OF_BIKES":0,"NUMBER_OF_EMPTY_DOCKS":15,"X":399503.07062433,"Y":134557.94595692,"SE_ANNO_CAD_DATA":null,"OWNER":"DC"},"geometry":{"type":"Point","coordinates":[-77.00572928402381,38.87886178351055]}},{"type":"Feature","properties":{"OBJECTID":222375400,"ID":163,"ADDRESS":"39th & Calvert St NW / Stoddert","TERMINAL_NUMBER":"31306","LATITUDE":38.922649,"LONGITUDE":-77.077271,"INSTALLED":"YES","LOCKED":"NO","INSTALL_DATE":null,"REMOVAL_DATE":null,"TEMPORARY_INSTALL":"NO","NUMBER_OF_BIKES":0,"NUMBER_OF_EMPTY_DOCKS":19,"X":393299.34379144,"Y":139422.36308098,"SE_ANNO_CAD_DATA":null,"OWNER":"DC"},"geometry":{"type":"Point","coordinates":[-77.07727330874073,38.922656789680175]}},{"type":"Feature","properties":{"OBJECTID":222375401,"ID":164,"ADDRESS":"1st & Washington Hospital Center NW","TERMINAL_NUMBER":"31507","LATITUDE":38.928743,"LONGITUDE":-77.012457,"INSTALLED":"YES","LOCKED":"NO","INSTALL_DATE":null,"REMOVAL_DATE":null,"TEMPORARY_INSTALL":"NO","NUMBER_OF_BIKES":6,"NUMBER_OF_EMPTY_DOCKS":8,"X":398919.86707704,"Y":140096.08692818,"SE_ANNO_CAD_DATA":null,"OWNER":"DC"},"geometry":{"type":"Point","coordinates":[-77.01245928934097,38.92875079357895]}},{"type":"Feature","properties":{"OBJECTID":222375402,"ID":165,"ADDRESS":"Virginia Square Metro / N Monroe St & 9th St N","TERMINAL_NUMBER":"31024","LATITUDE":38.882788,"LONGITUDE":-77.10314799999999,"INSTALLED":"YES","LOCKED":"NO","INSTALL_DATE":null,"REMOVAL_DATE":null,"TEMPORARY_INSTALL":"NO","NUMBER_OF_BIKES":4,"NUMBER_OF_EMPTY_DOCKS":14,"X":391050.38685989,"Y":134999.69056817,"SE_ANNO_CAD_DATA":null,"OWNER":null},"geometry":{"type":"Point","coordinates":[-77.10315031442443,38.8827957807937]}},{"type":"Feature","properties":{"OBJECTID":222375403,"ID":166,"ADDRESS":"Central Library / N Quincy St & 10th St N","TERMINAL_NUMBER":"31025","LATITUDE":38.88397,"LONGITUDE":-77.10782999999999,"INSTALLED":"YES","LOCKED":"NO","INSTALL_DATE":null,"REMOVAL_DATE":null,"TEMPORARY_INSTALL":"NO","NUMBER_OF_BIKES":1,"NUMBER_OF_EMPTY_DOCKS":9,"X":390644.30934888,"Y":135131.37099114,"SE_ANNO_CAD_DATA":null,"OWNER":null},"geometry":{"type":"Point","coordinates":[-77.1078323158271,38.88397778098809]}},{"type":"Feature","properties":{"OBJECTID":222375404,"ID":167,"ADDRESS":"Washington Blvd & 10th St N","TERMINAL_NUMBER":"31026","LATITUDE":38.884734,"LONGITUDE":-77.093485,"INSTALLED":"YES","LOCKED":"NO","INSTALL_DATE":null,"REMOVAL_DATE":null,"TEMPORARY_INSTALL":"NO","NUMBER_OF_BIKES":2,"NUMBER_OF_EMPTY_DOCKS":12,"X":391889.01580315,"Y":135214.80848005,"SE_ANNO_CAD_DATA":null,"OWNER":null},"geometry":{"type":"Point","coordinates":[-77.09348731160279,38.88474178177783]}},{"type":"Feature","properties":{"OBJECTID":222375405,"ID":168,"ADDRESS":"Jefferson Dr & 14th St SW","TERMINAL_NUMBER":"31247","LATITUDE":38.888553,"LONGITUDE":-77.032429,"INSTALLED":"YES","LOCKED":"NO","INSTALL_DATE":null,"REMOVAL_DATE":null,"TEMPORARY_INSTALL":"NO","NUMBER_OF_BIKES":4,"NUMBER_OF_EMPTY_DOCKS":15,"X":397186.53186857,"Y":135635.0937417,"SE_ANNO_CAD_DATA":null,"OWNER":"DC"},"geometry":{"type":"Point","coordinates":[-77.03243129286308,38.88856078472192]}},{"type":"Feature","properties":{"OBJECTID":222375406,"ID":169,"ADDRESS":"Smithsonian-National Mall / Jefferson Dr & 12th St SW","TERMINAL_NUMBER":"31248","LATITUDE":38.888767,"LONGITUDE":-77.02857999999999,"INSTALLED":"YES","LOCKED":"NO","INSTALL_DATE":null,"REMOVAL_DATE":null,"TEMPORARY_INSTALL":"NO","NUMBER_OF_BIKES":15,"NUMBER_OF_EMPTY_DOCKS":19,"X":397520.46999936,"Y":135658.73782359,"SE_ANNO_CAD_DATA":null,"OWNER":"DC"},"geometry":{"type":"Point","coordinates":[-77.02858229174441,38.88877478473393]}},{"type":"Feature","properties":{"OBJECTID":222375407,"ID":170,"ADDRESS":"George Mason Dr & Wilson Blvd","TERMINAL_NUMBER":"31036","LATITUDE":38.87887,"LONGITUDE":-77.1207,"INSTALLED":"YES","LOCKED":"NO","INSTALL_DATE":null,"REMOVAL_DATE":null,"TEMPORARY_INSTALL":"NO","NUMBER_OF_BIKES":0,"NUMBER_OF_EMPTY_DOCKS":15,"X":389526.91727648,"Y":134566.63015205,"SE_ANNO_CAD_DATA":null,"OWNER":null},"geometry":{"type":"Point","coordinates":[-77.12070232012599,38.878877779154486]}},{"type":"Feature","properties":{"OBJECTID":222375408,"ID":171,"ADDRESS":"6th St & Indiana Ave NW","TERMINAL_NUMBER":"31264","LATITUDE":38.894573,"LONGITUDE":-77.01993999999999,"INSTALLED":"YES","LOCKED":"NO","INSTALL_DATE":null,"REMOVAL_DATE":null,"TEMPORARY_INSTALL":"NO","NUMBER_OF_BIKES":10,"NUMBER_OF_EMPTY_DOCKS":8,"X":398270.19576117,"Y":136303.05019148,"SE_ANNO_CAD_DATA":null,"OWNER":"DC"},"geometry":{"type":"Point","coordinates":[-77.01994228954479,38.89458078629106]}},{"type":"Feature","properties":{"OBJECTID":222375409,"ID":172,"ADDRESS":"N Veitch & Key Blvd","TERMINAL_NUMBER":"31028","LATITUDE":38.893401,"LONGITUDE":-77.085867,"INSTALLED":"YES","LOCKED":"NO","INSTALL_DATE":null,"REMOVAL_DATE":null,"TEMPORARY_INSTALL":"NO","NUMBER_OF_BIKES":5,"NUMBER_OF_EMPTY_DOCKS":5,"X":392550.87662962,"Y":136176.26338223,"SE_ANNO_CAD_DATA":null,"OWNER":null},"geometry":{"type":"Point","coordinates":[-77.0858693099224,38.8934087835651]}},{"type":"Feature","properties":{"OBJECTID":222375410,"ID":173,"ADDRESS":"Lee Hwy & N Adams St","TERMINAL_NUMBER":"31030","LATITUDE":38.89593,"LONGITUDE":-77.089006,"INSTALLED":"YES","LOCKED":"NO","INSTALL_DATE":null,"REMOVAL_DATE":null,"TEMPORARY_INSTALL":"NO","NUMBER_OF_BIKES":7,"NUMBER_OF_EMPTY_DOCKS":12,"X":392278.83629398,"Y":136457.26307774,"SE_ANNO_CAD_DATA":null,"OWNER":null},"geometry":{"type":"Point","coordinates":[-77.08900831078738,38.8959377838857]}},{"type":"Feature","properties":{"OBJECTID":222375411,"ID":174,"ADDRESS":"15th & N Scott St","TERMINAL_NUMBER":"31031","LATITUDE":38.89054,"LONGITUDE":-77.08095,"INSTALLED":"YES","LOCKED":"NO","INSTALL_DATE":null,"REMOVAL_DATE":null,"TEMPORARY_INSTALL":"NO","NUMBER_OF_BIKES":0,"NUMBER_OF_EMPTY_DOCKS":11,"X":392977.15386494,"Y":135858.28028852,"SE_ANNO_CAD_DATA":null,"OWNER":null},"geometry":{"type":"Point","coordinates":[-77.08095230804805,38.89054778345318]}},{"type":"Feature","properties":{"OBJECTID":222375412,"ID":175,"ADDRESS":"Washington Blvd & 7th St N","TERMINAL_NUMBER":"31032","LATITUDE":38.880834,"LONGITUDE":-77.091129,"INSTALLED":"YES","LOCKED":"NO","INSTALL_DATE":null,"REMOVAL_DATE":null,"TEMPORARY_INSTALL":"NO","NUMBER_OF_BIKES":0,"NUMBER_OF_EMPTY_DOCKS":10,"X":392092.9958064,"Y":134781.67205596,"SE_ANNO_CAD_DATA":null,"OWNER":null},"geometry":{"type":"Point","coordinates":[-77.0911313106683,38.88084178095864]}},{"type":"Feature","properties":{"OBJECTID":222375413,"ID":176,"ADDRESS":"Ballston Metro / N Stuart & 9th St N","TERMINAL_NUMBER":"31037","LATITUDE":38.881043999999996,"LONGITUDE":-77.111768,"INSTALLED":"YES","LOCKED":"NO","INSTALL_DATE":null,"REMOVAL_DATE":null,"TEMPORARY_INSTALL":"NO","NUMBER_OF_BIKES":8,"NUMBER_OF_EMPTY_DOCKS":14,"X":390302.23781937,"Y":134806.97373735,"SE_ANNO_CAD_DATA":null,"OWNER":null},"geometry":{"type":"Point","coordinates":[-77.11177031725393,38.881051780284636]}},{"type":"Feature","properties":{"OBJECTID":222375414,"ID":177,"ADDRESS":"N Randolph St & Fairfax Dr","TERMINAL_NUMBER":"31034","LATITUDE":38.882629,"LONGITUDE":-77.109366,"INSTALLED":"YES","LOCKED":"NO","INSTALL_DATE":null,"REMOVAL_DATE":null,"TEMPORARY_INSTALL":"NO","NUMBER_OF_BIKES":0,"NUMBER_OF_EMPTY_DOCKS":11,"X":390510.86258655,"Y":134982.66832544,"SE_ANNO_CAD_DATA":null,"OWNER":null},"geometry":{"type":"Point","coordinates":[-77.10936831680114,38.882636780463336]}},{"type":"Feature","properties":{"OBJECTID":222375415,"ID":178,"ADDRESS":"Jefferson Memorial","TERMINAL_NUMBER":"31249","LATITUDE":38.879819,"LONGITUDE":-77.037413,"INSTALLED":"YES","LOCKED":"NO","INSTALL_DATE":null,"REMOVAL_DATE":null,"TEMPORARY_INSTALL":"NO","NUMBER_OF_BIKES":3,"NUMBER_OF_EMPTY_DOCKS":18,"X":396753.73375318,"Y":134665.71792817,"SE_ANNO_CAD_DATA":null,"OWNER":"DC"},"geometry":{"type":"Point","coordinates":[-77.03741529399254,38.879826782783475]}},{"type":"Feature","properties":{"OBJECTID":222375416,"ID":179,"ADDRESS":"Good Hope Rd & 14th St SE","TERMINAL_NUMBER":"31803","LATITUDE":38.866611,"LONGITUDE":-76.985238,"INSTALLED":"YES","LOCKED":"NO","INSTALL_DATE":null,"REMOVAL_DATE":null,"TEMPORARY_INSTALL":"NO","NUMBER_OF_BIKES":11,"NUMBER_OF_EMPTY_DOCKS":4,"X":401281.11228246,"Y":133198.96929326,"SE_ANNO_CAD_DATA":null,"OWNER":"DC"},"geometry":{"type":"Point","coordinates":[-76.98524027655961,38.86661878215054]}},{"type":"Feature","properties":{"OBJECTID":222375417,"ID":180,"ADDRESS":"Glebe Rd & 11th St N","TERMINAL_NUMBER":"31038","LATITUDE":38.883921,"LONGITUDE":-77.116817,"INSTALLED":"YES","LOCKED":"NO","INSTALL_DATE":null,"REMOVAL_DATE":null,"TEMPORARY_INSTALL":"NO","NUMBER_OF_BIKES":8,"NUMBER_OF_EMPTY_DOCKS":3,"X":389864.56068615,"Y":135126.89103108,"SE_ANNO_CAD_DATA":null,"OWNER":null},"geometry":{"type":"Point","coordinates":[-77.11681931890583,38.88392878028213]}},{"type":"Feature","properties":{"OBJECTID":222375418,"ID":181,"ADDRESS":"Wilson Blvd & N Quincy St","TERMINAL_NUMBER":"31039","LATITUDE":38.880012,"LONGITUDE":-77.107854,"INSTALLED":"YES","LOCKED":"NO","INSTALL_DATE":null,"REMOVAL_DATE":null,"TEMPORARY_INSTALL":"NO","NUMBER_OF_BIKES":1,"NUMBER_OF_EMPTY_DOCKS":14,"X":390641.70793238,"Y":134692.00542591,"SE_ANNO_CAD_DATA":null,"OWNER":null},"geometry":{"type":"Point","coordinates":[-77.1078563158346,38.88001978021341]}},{"type":"Feature","properties":{"OBJECTID":222375419,"ID":182,"ADDRESS":"Fairfax Dr & Kenmore St","TERMINAL_NUMBER":"31040","LATITUDE":38.884616,"LONGITUDE":-77.10108,"INSTALLED":"YES","LOCKED":"NO","INSTALL_DATE":null,"REMOVAL_DATE":null,"TEMPORARY_INSTALL":"NO","NUMBER_OF_BIKES":3,"NUMBER_OF_EMPTY_DOCKS":8,"X":391230.0410303,"Y":135202.41180552,"SE_ANNO_CAD_DATA":null,"OWNER":null},"geometry":{"type":"Point","coordinates":[-77.10108231441615,38.88462378135312]}},{"type":"Feature","properties":{"OBJECTID":222375420,"ID":183,"ADDRESS":"Gallaudet / 8th St & Florida Ave NE","TERMINAL_NUMBER":"31508","LATITUDE":38.90509,"LONGITUDE":-76.9941,"INSTALLED":"YES","LOCKED":"NO","INSTALL_DATE":null,"REMOVAL_DATE":null,"TEMPORARY_INSTALL":"NO","NUMBER_OF_BIKES":1,"NUMBER_OF_EMPTY_DOCKS":18,"X":400511.75228339,"Y":137470.34907981,"SE_ANNO_CAD_DATA":null,"OWNER":"DC"},"geometry":{"type":"Point","coordinates":[-76.99410228167524,38.90509778925506]}},{"type":"Feature","properties":{"OBJECTID":222375421,"ID":185,"ADDRESS":"20th & L St NW","TERMINAL_NUMBER":"31250","LATITUDE":38.903583999999995,"LONGITUDE":-77.044789,"INSTALLED":"YES","LOCKED":"NO","INSTALL_DATE":null,"REMOVAL_DATE":null,"TEMPORARY_INSTALL":"NO","NUMBER_OF_BIKES":14,"NUMBER_OF_EMPTY_DOCKS":3,"X":396115.02439795,"Y":137304.10738551,"SE_ANNO_CAD_DATA":null,"OWNER":"DC"},"geometry":{"type":"Point","coordinates":[-77.04479129796826,38.90359178712232]}},{"type":"Feature","properties":{"OBJECTID":222375422,"ID":186,"ADDRESS":"12th & L St NW","TERMINAL_NUMBER":"31251","LATITUDE":38.903819,"LONGITUDE":-77.0284,"INSTALLED":"YES","LOCKED":"NO","INSTALL_DATE":null,"REMOVAL_DATE":null,"TEMPORARY_INSTALL":"NO","NUMBER_OF_BIKES":0,"NUMBER_OF_EMPTY_DOCKS":19,"X":397536.60617,"Y":137329.6244241,"SE_ANNO_CAD_DATA":null,"OWNER":"DC"},"geometry":{"type":"Point","coordinates":[-77.02840229241322,38.903826787996806]}},{"type":"Feature","properties":{"OBJECTID":222375423,"ID":187,"ADDRESS":"21st St & Pennsylvania Ave NW","TERMINAL_NUMBER":"31252","LATITUDE":38.901539,"LONGITUDE":-77.046564,"INSTALLED":"YES","LOCKED":"NO","INSTALL_DATE":null,"REMOVAL_DATE":null,"TEMPORARY_INSTALL":"NO","NUMBER_OF_BIKES":17,"NUMBER_OF_EMPTY_DOCKS":1,"X":395960.94600021,"Y":137077.17295375,"SE_ANNO_CAD_DATA":null,"OWNER":"DC"},"geometry":{"type":"Point","coordinates":[-77.04656629813368,38.90154678659229]}},{"type":"Feature","properties":{"OBJECTID":222375424,"ID":188,"ADDRESS":"19th & K St NW","TERMINAL_NUMBER":"31253","LATITUDE":38.902204,"LONGITUDE":-77.04337,"INSTALLED":"YES","LOCKED":"NO","INSTALL_DATE":null,"REMOVAL_DATE":null,"TEMPORARY_INSTALL":"NO","NUMBER_OF_BIKES":21,"NUMBER_OF_EMPTY_DOCKS":0,"X":396238.03496422,"Y":137150.85682925,"SE_ANNO_CAD_DATA":null,"OWNER":"DC"},"geometry":{"type":"Point","coordinates":[-77.04337229748543,38.90221178684085]}},{"type":"Feature","properties":{"OBJECTID":222375425,"ID":189,"ADDRESS":"Prince St & Union St","TERMINAL_NUMBER":"31041","LATITUDE":38.803124,"LONGITUDE":-77.040363,"INSTALLED":"YES","LOCKED":"NO","INSTALL_DATE":null,"REMOVAL_DATE":null,"TEMPORARY_INSTALL":"NO","NUMBER_OF_BIKES":16,"NUMBER_OF_EMPTY_DOCKS":0,"X":396494.00267968,"Y":126152.15218226,"SE_ANNO_CAD_DATA":null,"OWNER":null},"geometry":{"type":"Point","coordinates":[-77.0403652901142,38.80313176715074]}},{"type":"Feature","properties":{"OBJECTID":222375426,"ID":190,"ADDRESS":"Market Square / King St & Royal St","TERMINAL_NUMBER":"31042","LATITUDE":38.804718,"LONGITUDE":-77.043363,"INSTALLED":"YES","LOCKED":"NO","INSTALL_DATE":null,"REMOVAL_DATE":null,"TEMPORARY_INSTALL":"NO","NUMBER_OF_BIKES":14,"NUMBER_OF_EMPTY_DOCKS":0,"X":396233.50175862,"Y":126329.21564255,"SE_ANNO_CAD_DATA":null,"OWNER":null},"geometry":{"type":"Point","coordinates":[-77.0433652913336,38.804725767155915]}},{"type":"Feature","properties":{"OBJECTID":222375427,"ID":191,"ADDRESS":"Saint Asaph St & Pendleton  St","TERMINAL_NUMBER":"31043","LATITUDE":38.810742999999995,"LONGITUDE":-77.044664,"INSTALLED":"YES","LOCKED":"NO","INSTALL_DATE":null,"REMOVAL_DATE":null,"TEMPORARY_INSTALL":"NO","NUMBER_OF_BIKES":10,"NUMBER_OF_EMPTY_DOCKS":4,"X":396120.82449056,"Y":126998.08315733,"SE_ANNO_CAD_DATA":null,"OWNER":null},"geometry":{"type":"Point","coordinates":[-77.04466629189693,38.81075076875493]}},{"type":"Feature","properties":{"OBJECTID":222375428,"ID":192,"ADDRESS":"King St & Patrick St","TERMINAL_NUMBER":"31044","LATITUDE":38.805316999999995,"LONGITUDE":-77.049883,"INSTALLED":"YES","LOCKED":"NO","INSTALL_DATE":null,"REMOVAL_DATE":null,"TEMPORARY_INSTALL":"NO","NUMBER_OF_BIKES":13,"NUMBER_OF_EMPTY_DOCKS":0,"X":395667.21274018,"Y":126395.99762896,"SE_ANNO_CAD_DATA":null,"OWNER":null},"geometry":{"type":"Point","coordinates":[-77.04988529318646,38.80532476715682]}},{"type":"Feature","properties":{"OBJECTID":222375429,"ID":193,"ADDRESS":"15th & K St NW","TERMINAL_NUMBER":"31254","LATITUDE":38.902,"LONGITUDE":-77.03353,"INSTALLED":"YES","LOCKED":"NO","INSTALL_DATE":null,"REMOVAL_DATE":null,"TEMPORARY_INSTALL":"NO","NUMBER_OF_BIKES":18,"NUMBER_OF_EMPTY_DOCKS":8,"X":397091.55982715,"Y":137127.85168549,"SE_ANNO_CAD_DATA":null,"OWNER":"DC"},"geometry":{"type":"Point","coordinates":[-77.03353229427012,38.90200778733588]}},{"type":"Feature","properties":{"OBJECTID":222375430,"ID":194,"ADDRESS":"Commerce St & Fayette St","TERMINAL_NUMBER":"31045","LATITUDE":38.805648,"LONGITUDE":-77.05293,"INSTALLED":"YES","LOCKED":"NO","INSTALL_DATE":null,"REMOVAL_DATE":null,"TEMPORARY_INSTALL":"NO","NUMBER_OF_BIKES":1,"NUMBER_OF_EMPTY_DOCKS":14,"X":395402.57471448,"Y":126432.8897394,"SE_ANNO_CAD_DATA":null,"OWNER":null},"geometry":{"type":"Point","coordinates":[-77.05293229457844,38.805655767241326]}},{"type":"Feature","properties":{"OBJECTID":222375431,"ID":195,"ADDRESS":"Henry St & Pendleton St","TERMINAL_NUMBER":"31046","LATITUDE":38.811456,"LONGITUDE":-77.050276,"INSTALLED":"YES","LOCKED":"NO","INSTALL_DATE":null,"REMOVAL_DATE":null,"TEMPORARY_INSTALL":"NO","NUMBER_OF_BIKES":8,"NUMBER_OF_EMPTY_DOCKS":7,"X":395633.45246838,"Y":127077.48415181,"SE_ANNO_CAD_DATA":null,"OWNER":null},"geometry":{"type":"Point","coordinates":[-77.05027829415053,38.8114637681766]}},{"type":"Feature","properties":{"OBJECTID":222375432,"ID":196,"ADDRESS":"Braddock Rd Metro","TERMINAL_NUMBER":"31047","LATITUDE":38.814577,"LONGITUDE":-77.052808,"INSTALLED":"YES","LOCKED":"NO","INSTALL_DATE":null,"REMOVAL_DATE":null,"TEMPORARY_INSTALL":"NO","NUMBER_OF_BIKES":14,"NUMBER_OF_EMPTY_DOCKS":13,"X":395413.7448307,"Y":127424.05927501,"SE_ANNO_CAD_DATA":null,"OWNER":null},"geometry":{"type":"Point","coordinates":[-77.05281029498207,38.81458476872928]}},{"type":"Feature","properties":{"OBJECTID":222375433,"ID":197,"ADDRESS":"King St Metro South","TERMINAL_NUMBER":"31048","LATITUDE":38.805766999999996,"LONGITUDE":-77.06072,"INSTALLED":"YES","LOCKED":"NO","INSTALL_DATE":null,"REMOVAL_DATE":null,"TEMPORARY_INSTALL":"NO","NUMBER_OF_BIKES":2,"NUMBER_OF_EMPTY_DOCKS":20,"X":394725.95516096,"Y":126446.52067087,"SE_ANNO_CAD_DATA":null,"OWNER":null},"geometry":{"type":"Point","coordinates":[-77.06072229639332,38.805774767030016]}},{"type":"Feature","properties":{"OBJECTID":222375434,"ID":198,"ADDRESS":"24th & N St NW","TERMINAL_NUMBER":"31255","LATITUDE":38.906600000000005,"LONGITUDE":-77.05152,"INSTALLED":"YES","LOCKED":"NO","INSTALL_DATE":null,"REMOVAL_DATE":null,"TEMPORARY_INSTALL":"NO","NUMBER_OF_BIKES":15,"NUMBER_OF_EMPTY_DOCKS":0,"X":395531.3698104,"Y":137639.21579131,"SE_ANNO_CAD_DATA":null,"OWNER":"DC"},"geometry":{"type":"Point","coordinates":[-77.05152229995979,38.90660778776488]}},{"type":"Feature","properties":{"OBJECTID":222375435,"ID":199,"ADDRESS":"10th & E St NW","TERMINAL_NUMBER":"31256","LATITUDE":38.895914,"LONGITUDE":-77.02606399999999,"INSTALLED":"YES","LOCKED":"NO","INSTALL_DATE":null,"REMOVAL_DATE":null,"TEMPORARY_INSTALL":"NO","NUMBER_OF_BIKES":10,"NUMBER_OF_EMPTY_DOCKS":2,"X":397738.97843831,"Y":136452.04567026,"SE_ANNO_CAD_DATA":null,"OWNER":"DC"},"geometry":{"type":"Point","coordinates":[-77.0260662914142,38.89592178652443]}},{"type":"Feature","properties":{"OBJECTID":222375436,"ID":200,"ADDRESS":"22nd & I St NW / Foggy Bottom","TERMINAL_NUMBER":"31257","LATITUDE":38.90088,"LONGITUDE":-77.04891099999999,"INSTALLED":"YES","LOCKED":"NO","INSTALL_DATE":null,"REMOVAL_DATE":null,"TEMPORARY_INSTALL":"NO","NUMBER_OF_BIKES":7,"NUMBER_OF_EMPTY_DOCKS":8,"X":395757.32337487,"Y":137004.12512577,"SE_ANNO_CAD_DATA":null,"OWNER":"DC"},"geometry":{"type":"Point","coordinates":[-77.04891329882025,38.90088778651118]}},{"type":"Feature","properties":{"OBJECTID":222375437,"ID":201,"ADDRESS":"Utah St & 11th St N","TERMINAL_NUMBER":"31049","LATITUDE":38.883669,"LONGITUDE":-77.113905,"INSTALLED":"YES","LOCKED":"NO","INSTALL_DATE":null,"REMOVAL_DATE":null,"TEMPORARY_INSTALL":"NO","NUMBER_OF_BIKES":9,"NUMBER_OF_EMPTY_DOCKS":2,"X":390117.18065021,"Y":135098.59783356,"SE_ANNO_CAD_DATA":null,"OWNER":null},"geometry":{"type":"Point","coordinates":[-77.11390731829052,38.883676780430235]}},{"type":"Feature","properties":{"OBJECTID":222375438,"ID":202,"ADDRESS":"Barton St & 10th St N","TERMINAL_NUMBER":"31050","LATITUDE":38.884961,"LONGITUDE":-77.08776999999999,"INSTALLED":"YES","LOCKED":"NO","INSTALL_DATE":null,"REMOVAL_DATE":null,"TEMPORARY_INSTALL":"NO","NUMBER_OF_BIKES":0,"NUMBER_OF_EMPTY_DOCKS":11,"X":392384.88706428,"Y":135239.51496366,"SE_ANNO_CAD_DATA":null,"OWNER":null},"geometry":{"type":"Point","coordinates":[-77.08777230996569,38.884968781621716]}},{"type":"Feature","properties":{"OBJECTID":222375439,"ID":203,"ADDRESS":"Arlington Blvd & N Queen St","TERMINAL_NUMBER":"31051","LATITUDE":38.889365,"LONGITUDE":-77.077294,"INSTALLED":"YES","LOCKED":"NO","INSTALL_DATE":null,"REMOVAL_DATE":null,"TEMPORARY_INSTALL":"NO","NUMBER_OF_BIKES":2,"NUMBER_OF_EMPTY_DOCKS":6,"X":393294.22093326,"Y":135727.57124359,"SE_ANNO_CAD_DATA":null,"OWNER":null},"geometry":{"type":"Point","coordinates":[-77.0772963069051,38.88937278319443]}},{"type":"Feature","properties":{"OBJECTID":222375440,"ID":204,"ADDRESS":"Lincoln Memorial","TERMINAL_NUMBER":"31258","LATITUDE":38.888251,"LONGITUDE":-77.049426,"INSTALLED":"YES","LOCKED":"NO","INSTALL_DATE":null,"REMOVAL_DATE":null,"TEMPORARY_INSTALL":"NO","NUMBER_OF_BIKES":0,"NUMBER_OF_EMPTY_DOCKS":24,"X":395711.89180633,"Y":135602.23051407,"SE_ANNO_CAD_DATA":null,"OWNER":"DC"},"geometry":{"type":"Point","coordinates":[-77.04942829813929,38.88825878382555]}},{"type":"Feature","properties":{"OBJECTID":222375441,"ID":206,"ADDRESS":"20th St & Virginia Ave NW","TERMINAL_NUMBER":"31259","LATITUDE":38.894722,"LONGITUDE":-77.04512799999999,"INSTALLED":"YES","LOCKED":"NO","INSTALL_DATE":null,"REMOVAL_DATE":null,"TEMPORARY_INSTALL":"NO","NUMBER_OF_BIKES":13,"NUMBER_OF_EMPTY_DOCKS":0,"X":396085.13339566,"Y":136320.36909798,"SE_ANNO_CAD_DATA":null,"OWNER":"DC"},"geometry":{"type":"Point","coordinates":[-77.04513029750592,38.894729785660985]}},{"type":"Feature","properties":{"OBJECTID":222375442,"ID":207,"ADDRESS":"5th St & Massachusetts Ave NW","TERMINAL_NUMBER":"31265","LATITUDE":38.900929999999995,"LONGITUDE":-77.018677,"INSTALLED":"YES","LOCKED":"NO","INSTALL_DATE":null,"REMOVAL_DATE":null,"TEMPORARY_INSTALL":"NO","NUMBER_OF_BIKES":4,"NUMBER_OF_EMPTY_DOCKS":15,"X":398379.90597158,"Y":137008.70467648,"SE_ANNO_CAD_DATA":null,"OWNER":"DC"},"geometry":{"type":"Point","coordinates":[-77.01867928908317,38.9009377877554]}},{"type":"Feature","properties":{"OBJECTID":222375443,"ID":208,"ADDRESS":"39th & Veazey St NW","TERMINAL_NUMBER":"31308","LATITUDE":38.943836999999995,"LONGITUDE":-77.077078,"INSTALLED":"YES","LOCKED":"NO","INSTALL_DATE":null,"REMOVAL_DATE":null,"TEMPORARY_INSTALL":"NO","NUMBER_OF_BIKES":7,"NUMBER_OF_EMPTY_DOCKS":7,"X":393318.06595366,"Y":141774.40034915,"SE_ANNO_CAD_DATA":null,"OWNER":"DC"},"geometry":{"type":"Point","coordinates":[-77.07708031040909,38.94384479435444]}},{"type":"Feature","properties":{"OBJECTID":222375444,"ID":209,"ADDRESS":"Fessenden St & Wisconsin Ave NW","TERMINAL_NUMBER":"31309","LATITUDE":38.954812,"LONGITUDE":-77.082426,"INSTALLED":"YES","LOCKED":"NO","INSTALL_DATE":null,"REMOVAL_DATE":null,"TEMPORARY_INSTALL":"NO","NUMBER_OF_BIKES":7,"NUMBER_OF_EMPTY_DOCKS":8,"X":392855.54507199,"Y":142993.1290753,"SE_ANNO_CAD_DATA":null,"OWNER":"DC"},"geometry":{"type":"Point","coordinates":[-77.08242831267064,38.954819796016125]}},{"type":"Feature","properties":{"OBJECTID":222375445,"ID":210,"ADDRESS":"3rd & M St NE","TERMINAL_NUMBER":"31627","LATITUDE":38.90547,"LONGITUDE":-77.00213,"INSTALLED":"YES","LOCKED":"NO","INSTALL_DATE":null,"REMOVAL_DATE":null,"TEMPORARY_INSTALL":"NO","NUMBER_OF_BIKES":2,"NUMBER_OF_EMPTY_DOCKS":19,"X":399815.24973606,"Y":137512.51778395,"SE_ANNO_CAD_DATA":null,"OWNER":"DC"},"geometry":{"type":"Point","coordinates":[-77.00213228437417,38.90547778944563]}},{"type":"Feature","properties":{"OBJECTID":222375446,"ID":211,"ADDRESS":"Columbia Pike & S Courthouse Rd","TERMINAL_NUMBER":"31053","LATITUDE":38.863833,"LONGITUDE":-77.080319,"INSTALLED":"YES","LOCKED":"NO","INSTALL_DATE":null,"REMOVAL_DATE":null,"TEMPORARY_INSTALL":"NO","NUMBER_OF_BIKES":2,"NUMBER_OF_EMPTY_DOCKS":11,"X":393029.28804682,"Y":132893.55385171,"SE_ANNO_CAD_DATA":null,"OWNER":null},"geometry":{"type":"Point","coordinates":[-77.08032130615506,38.8638407780837]}},{"type":"Feature","properties":{"OBJECTID":222375447,"ID":212,"ADDRESS":"Walter Reed Community Center / Walter Reed Dr & 16th St S","TERMINAL_NUMBER":"31054","LATITUDE":38.857803,"LONGITUDE":-77.086733,"INSTALLED":"YES","LOCKED":"NO","INSTALL_DATE":null,"REMOVAL_DATE":null,"TEMPORARY_INSTALL":"NO","NUMBER_OF_BIKES":1,"NUMBER_OF_EMPTY_DOCKS":10,"X":392471.99507726,"Y":132224.68968124,"SE_ANNO_CAD_DATA":null,"OWNER":null},"geometry":{"type":"Point","coordinates":[-77.08673530813356,38.85781077647399]}},{"type":"Feature","properties":{"OBJECTID":222375448,"ID":213,"ADDRESS":"28th St S & S Meade St","TERMINAL_NUMBER":"31055","LATITUDE":38.846222,"LONGITUDE":-77.06927499999999,"INSTALLED":"YES","LOCKED":"NO","INSTALL_DATE":null,"REMOVAL_DATE":null,"TEMPORARY_INSTALL":"NO","NUMBER_OF_BIKES":10,"NUMBER_OF_EMPTY_DOCKS":4,"X":393986.28914822,"Y":130937.82204983,"SE_ANNO_CAD_DATA":null,"OWNER":null},"geometry":{"type":"Point","coordinates":[-77.06927730209148,38.84622977484571]}},{"type":"Feature","properties":{"OBJECTID":222375449,"ID":214,"ADDRESS":"18th St & Wyoming Ave NW","TERMINAL_NUMBER":"31114","LATITUDE":38.918808999999996,"LONGITUDE":-77.04157099999999,"INSTALLED":"YES","LOCKED":"NO","INSTALL_DATE":null,"REMOVAL_DATE":null,"TEMPORARY_INSTALL":"NO","NUMBER_OF_BIKES":4,"NUMBER_OF_EMPTY_DOCKS":18,"X":396394.92173743,"Y":138994.07565048,"SE_ANNO_CAD_DATA":null,"OWNER":"DC"},"geometry":{"type":"Point","coordinates":[-77.04157329748756,38.918816790176884]}},{"type":"Feature","properties":{"OBJECTID":222375450,"ID":215,"ADDRESS":"5th & Kennedy St NW","TERMINAL_NUMBER":"31403","LATITUDE":38.956556,"LONGITUDE":-77.019814,"INSTALLED":"YES","LOCKED":"NO","INSTALL_DATE":null,"REMOVAL_DATE":null,"TEMPORARY_INSTALL":"NO","NUMBER_OF_BIKES":2,"NUMBER_OF_EMPTY_DOCKS":13,"X":398282.61975004,"Y":143183.69002703,"SE_ANNO_CAD_DATA":null,"OWNER":"DC"},"geometry":{"type":"Point","coordinates":[-77.01981629316762,38.95656379858018]}},{"type":"Feature","properties":{"OBJECTID":222375451,"ID":216,"ADDRESS":"Georgia Ave & Emerson St NW","TERMINAL_NUMBER":"31405","LATITUDE":38.949662,"LONGITUDE":-77.027333,"INSTALLED":"YES","LOCKED":"NO","INSTALL_DATE":null,"REMOVAL_DATE":null,"TEMPORARY_INSTALL":"NO","NUMBER_OF_BIKES":4,"NUMBER_OF_EMPTY_DOCKS":15,"X":397630.68061866,"Y":142418.56148209,"SE_ANNO_CAD_DATA":null,"OWNER":"DC"},"geometry":{"type":"Point","coordinates":[-77.02733529501398,38.94966979731566]}},{"type":"Feature","properties":{"OBJECTID":222375452,"ID":217,"ADDRESS":"14th & Upshur St NW","TERMINAL_NUMBER":"31406","LATITUDE":38.942015999999995,"LONGITUDE":-77.032652,"INSTALLED":"YES","LOCKED":"NO","INSTALL_DATE":null,"REMOVAL_DATE":null,"TEMPORARY_INSTALL":"NO","NUMBER_OF_BIKES":9,"NUMBER_OF_EMPTY_DOCKS":10,"X":397169.30765214,"Y":141569.93848837,"SE_ANNO_CAD_DATA":null,"OWNER":"DC"},"geometry":{"type":"Point","coordinates":[-77.03265429658849,38.94202379552021]}},{"type":"Feature","properties":{"OBJECTID":222375453,"ID":218,"ADDRESS":"14th St & Colorado Ave NW","TERMINAL_NUMBER":"31407","LATITUDE":38.956432,"LONGITUDE":-77.032947,"INSTALLED":"YES","LOCKED":"NO","INSTALL_DATE":null,"REMOVAL_DATE":null,"TEMPORARY_INSTALL":"NO","NUMBER_OF_BIKES":0,"NUMBER_OF_EMPTY_DOCKS":19,"X":397144.31085359,"Y":143170.25383441,"SE_ANNO_CAD_DATA":null,"OWNER":"DC"},"geometry":{"type":"Point","coordinates":[-77.03294929700347,38.95643979811072]}},{"type":"Feature","properties":{"OBJECTID":222375454,"ID":219,"ADDRESS":"S Troy St & 26th St S","TERMINAL_NUMBER":"31056","LATITUDE":38.847977,"LONGITUDE":-77.075104,"INSTALLED":"YES","LOCKED":"NO","INSTALL_DATE":null,"REMOVAL_DATE":null,"TEMPORARY_INSTALL":"NO","NUMBER_OF_BIKES":8,"NUMBER_OF_EMPTY_DOCKS":3,"X":393480.43841302,"Y":131133.03943473,"SE_ANNO_CAD_DATA":null,"OWNER":null},"geometry":{"type":"Point","coordinates":[-77.075106303463,38.84798477489373]}},{"type":"Feature","properties":{"OBJECTID":222375455,"ID":220,"ADDRESS":"S Four Mile Run Dr & S Shirlington Rd","TERMINAL_NUMBER":"31057","LATITUDE":38.8444,"LONGITUDE":-77.085931,"INSTALLED":"YES","LOCKED":"NO","INSTALL_DATE":null,"REMOVAL_DATE":null,"TEMPORARY_INSTALL":"NO","NUMBER_OF_BIKES":6,"NUMBER_OF_EMPTY_DOCKS":4,"X":392540.20426708,"Y":130736.796557,"SE_ANNO_CAD_DATA":null,"OWNER":null},"geometry":{"type":"Point","coordinates":[-77.08593330709279,38.844407773792184]}},{"type":"Feature","properties":{"OBJECTID":222375456,"ID":221,"ADDRESS":"S Oakland St & Columbia Pike","TERMINAL_NUMBER":"31058","LATITUDE":38.860789,"LONGITUDE":-77.09586,"INSTALLED":"YES","LOCKED":"NO","INSTALL_DATE":null,"REMOVAL_DATE":null,"TEMPORARY_INSTALL":"NO","NUMBER_OF_BIKES":6,"NUMBER_OF_EMPTY_DOCKS":5,"X":391680.16396318,"Y":132556.94935025,"SE_ANNO_CAD_DATA":null,"OWNER":null},"geometry":{"type":"Point","coordinates":[-77.09586231128219,38.86079677690226]}},{"type":"Feature","properties":{"OBJECTID":222375457,"ID":222,"ADDRESS":"S Four Mile Run & Walter Reed Dr","TERMINAL_NUMBER":"31059","LATITUDE":38.847359999999995,"LONGITUDE":-77.09543099999999,"INSTALLED":"YES","LOCKED":"NO","INSTALL_DATE":null,"REMOVAL_DATE":null,"TEMPORARY_INSTALL":"NO","NUMBER_OF_BIKES":3,"NUMBER_OF_EMPTY_DOCKS":8,"X":391715.83915544,"Y":131066.19628707,"SE_ANNO_CAD_DATA":null,"OWNER":null},"geometry":{"type":"Point","coordinates":[-77.09543331038365,38.84736777421451]}},{"type":"Feature","properties":{"OBJECTID":222375458,"ID":223,"ADDRESS":"S Arlington Mill Dr & Campbell Ave","TERMINAL_NUMBER":"31060","LATITUDE":38.84232,"LONGITUDE":-77.08955499999999,"INSTALLED":"YES","LOCKED":"NO","INSTALL_DATE":null,"REMOVAL_DATE":null,"TEMPORARY_INSTALL":"NO","NUMBER_OF_BIKES":5,"NUMBER_OF_EMPTY_DOCKS":9,"X":392225.37311813,"Y":130506.2046103,"SE_ANNO_CAD_DATA":null,"OWNER":null},"geometry":{"type":"Point","coordinates":[-77.08955730781776,38.84232777332017]}},{"type":"Feature","properties":{"OBJECTID":222375459,"ID":224,"ADDRESS":"S Kenmore & 24th St S","TERMINAL_NUMBER":"31061","LATITUDE":38.848454,"LONGITUDE":-77.084918,"INSTALLED":"YES","LOCKED":"NO","INSTALL_DATE":null,"REMOVAL_DATE":null,"TEMPORARY_INSTALL":"NO","NUMBER_OF_BIKES":3,"NUMBER_OF_EMPTY_DOCKS":8,"X":392628.5628703,"Y":131186.73644678,"SE_ANNO_CAD_DATA":null,"OWNER":null},"geometry":{"type":"Point","coordinates":[-77.08492030677384,38.84846177451528]}},{"type":"Feature","properties":{"OBJECTID":222375460,"ID":225,"ADDRESS":"13th St & Eastern Ave","TERMINAL_NUMBER":"32006","LATITUDE":38.987,"LONGITUDE":-77.029417,"INSTALLED":"YES","LOCKED":"NO","INSTALL_DATE":null,"REMOVAL_DATE":null,"TEMPORARY_INSTALL":"NO","NUMBER_OF_BIKES":6,"NUMBER_OF_EMPTY_DOCKS":9,"X":397451.3679179,"Y":146563.48846577,"SE_ANNO_CAD_DATA":null,"OWNER":null},"geometry":{"type":"Point","coordinates":[-77.02941929779979,38.98700780433892]}},{"type":"Feature","properties":{"OBJECTID":222375461,"ID":226,"ADDRESS":"Wisconsin Ave & O St NW","TERMINAL_NUMBER":"31312","LATITUDE":38.90849,"LONGITUDE":-77.063586,"INSTALLED":"YES","LOCKED":"NO","INSTALL_DATE":null,"REMOVAL_DATE":null,"TEMPORARY_INSTALL":"NO","NUMBER_OF_BIKES":1,"NUMBER_OF_EMPTY_DOCKS":17,"X":394484.96152307,"Y":137849.68097811,"SE_ANNO_CAD_DATA":null,"OWNER":"DC"},"geometry":{"type":"Point","coordinates":[-77.06358830412232,38.90849778770146]}},{"type":"Feature","properties":{"OBJECTID":222375462,"ID":227,"ADDRESS":"Roosevelt Island","TERMINAL_NUMBER":"31062","LATITUDE":38.896553,"LONGITUDE":-77.06714,"INSTALLED":"YES","LOCKED":"NO","INSTALL_DATE":null,"REMOVAL_DATE":null,"TEMPORARY_INSTALL":"NO","NUMBER_OF_BIKES":5,"NUMBER_OF_EMPTY_DOCKS":6,"X":394175.73602395,"Y":136524.79875716,"SE_ANNO_CAD_DATA":null,"OWNER":null},"geometry":{"type":"Point","coordinates":[-77.0671423045085,38.89656078490053]}},{"type":"Feature","properties":{"OBJECTID":222375463,"ID":228,"ADDRESS":"Connecticut & Nebraska Ave NW","TERMINAL_NUMBER":"31310","LATITUDE":38.955016,"LONGITUDE":-77.06995599999999,"INSTALLED":"YES","LOCKED":"NO","INSTALL_DATE":null,"REMOVAL_DATE":null,"TEMPORARY_INSTALL":"NO","NUMBER_OF_BIKES":0,"NUMBER_OF_EMPTY_DOCKS":23,"X":393936.42688566,"Y":143014.87282821,"SE_ANNO_CAD_DATA":null,"OWNER":"DC"},"geometry":{"type":"Point","coordinates":[-77.06995830881334,38.955023796497585]}},{"type":"Feature","properties":{"OBJECTID":222375464,"ID":229,"ADDRESS":"17th St & Massachusetts Ave NW","TERMINAL_NUMBER":"31267","LATITUDE":38.908142,"LONGITUDE":-77.038359,"INSTALLED":"YES","LOCKED":"NO","INSTALL_DATE":null,"REMOVAL_DATE":null,"TEMPORARY_INSTALL":"NO","NUMBER_OF_BIKES":12,"NUMBER_OF_EMPTY_DOCKS":6,"X":396672.97197532,"Y":137809.82841168,"SE_ANNO_CAD_DATA":null,"OWNER":"DC"},"geometry":{"type":"Point","coordinates":[-77.03836129569578,38.908149788608696]}},{"type":"Feature","properties":{"OBJECTID":222375465,"ID":230,"ADDRESS":"15th & Euclid St  NW","TERMINAL_NUMBER":"31117","LATITUDE":38.92333,"LONGITUDE":-77.0352,"INSTALLED":"YES","LOCKED":"NO","INSTALL_DATE":null,"REMOVAL_DATE":null,"TEMPORARY_INSTALL":"NO","NUMBER_OF_BIKES":0,"NUMBER_OF_EMPTY_DOCKS":15,"X":396947.614649,"Y":139495.71246314,"SE_ANNO_CAD_DATA":null,"OWNER":"DC"},"geometry":{"type":"Point","coordinates":[-77.03520229620197,38.92333779132426]}},{"type":"Feature","properties":{"OBJECTID":222375466,"ID":231,"ADDRESS":"8th & East Capitol St NE","TERMINAL_NUMBER":"31629","LATITUDE":38.889987999999995,"LONGITUDE":-76.995193,"INSTALLED":"YES","LOCKED":"NO","INSTALL_DATE":null,"REMOVAL_DATE":null,"TEMPORARY_INSTALL":"NO","NUMBER_OF_BIKES":0,"NUMBER_OF_EMPTY_DOCKS":11,"X":400417.03628136,"Y":135793.90119809,"SE_ANNO_CAD_DATA":null,"OWNER":"DC"},"geometry":{"type":"Point","coordinates":[-76.99519528107118,38.88999578622877]}},{"type":"Feature","properties":{"OBJECTID":222375467,"ID":232,"ADDRESS":"New Jersey Ave & R St NW","TERMINAL_NUMBER":"31509","LATITUDE":38.912659,"LONGITUDE":-77.017669,"INSTALLED":"YES","LOCKED":"NO","INSTALL_DATE":null,"REMOVAL_DATE":null,"TEMPORARY_INSTALL":"NO","NUMBER_OF_BIKES":0,"NUMBER_OF_EMPTY_DOCKS":15,"X":398467.59465205,"Y":138310.70186081,"SE_ANNO_CAD_DATA":null,"OWNER":"DC"},"geometry":{"type":"Point","coordinates":[-77.01767129012524,38.912666790186364]}},{"type":"Feature","properties":{"OBJECTID":222375468,"ID":233,"ADDRESS":"15th & East Capitol St NE","TERMINAL_NUMBER":"31630","LATITUDE":38.889908,"LONGITUDE":-76.98332599999999,"INSTALLED":"YES","LOCKED":"NO","INSTALL_DATE":null,"REMOVAL_DATE":null,"TEMPORARY_INSTALL":"NO","NUMBER_OF_BIKES":6,"NUMBER_OF_EMPTY_DOCKS":4,"X":401446.57181554,"Y":135785.14170208,"SE_ANNO_CAD_DATA":null,"OWNER":"DC"},"geometry":{"type":"Point","coordinates":[-76.98332827776444,38.88991578661861]}},{"type":"Feature","properties":{"OBJECTID":222375469,"ID":234,"ADDRESS":"8th & F St NE","TERMINAL_NUMBER":"31631","LATITUDE":38.897273999999996,"LONGITUDE":-76.994749,"INSTALLED":"YES","LOCKED":"NO","INSTALL_DATE":null,"REMOVAL_DATE":null,"TEMPORARY_INSTALL":"NO","NUMBER_OF_BIKES":0,"NUMBER_OF_EMPTY_DOCKS":14,"X":400455.50943968,"Y":136602.70680593,"SE_ANNO_CAD_DATA":null,"OWNER":"DC"},"geometry":{"type":"Point","coordinates":[-76.99475128176122,38.89728178786966]}},{"type":"Feature","properties":{"OBJECTID":222375470,"ID":235,"ADDRESS":"18th St & Rhode Island Ave NE","TERMINAL_NUMBER":"31510","LATITUDE":38.927095,"LONGITUDE":-76.97892399999999,"INSTALLED":"YES","LOCKED":"NO","INSTALL_DATE":null,"REMOVAL_DATE":null,"TEMPORARY_INSTALL":"NO","NUMBER_OF_BIKES":5,"NUMBER_OF_EMPTY_DOCKS":10,"X":401827.51926549,"Y":139913.2820472,"SE_ANNO_CAD_DATA":null,"OWNER":"DC"},"geometry":{"type":"Point","coordinates":[-76.97892627880582,38.92710279455108]}},{"type":"Feature","properties":{"OBJECTID":222375471,"ID":236,"ADDRESS":"15th & F St NE","TERMINAL_NUMBER":"31632","LATITUDE":38.897194999999996,"LONGITUDE":-76.983575,"INSTALLED":"YES","LOCKED":"NO","INSTALL_DATE":null,"REMOVAL_DATE":null,"TEMPORARY_INSTALL":"NO","NUMBER_OF_BIKES":0,"NUMBER_OF_EMPTY_DOCKS":19,"X":401424.82399465,"Y":136594.05225642,"SE_ANNO_CAD_DATA":null,"OWNER":"DC"},"geometry":{"type":"Point","coordinates":[-76.9835772781896,38.89720278815291]}},{"type":"Feature","properties":{"OBJECTID":222375472,"ID":237,"ADDRESS":"12th & Irving St NE","TERMINAL_NUMBER":"31511","LATITUDE":38.928644,"LONGITUDE":-76.990955,"INSTALLED":"YES","LOCKED":"NO","INSTALL_DATE":null,"REMOVAL_DATE":null,"TEMPORARY_INSTALL":"NO","NUMBER_OF_BIKES":1,"NUMBER_OF_EMPTY_DOCKS":14,"X":400784.28320356,"Y":140085.0622346,"SE_ANNO_CAD_DATA":null,"OWNER":"DC"},"geometry":{"type":"Point","coordinates":[-76.99095728265483,38.928651794415735]}},{"type":"Feature","properties":{"OBJECTID":222375473,"ID":239,"ADDRESS":"Alabama & MLK Ave SE","TERMINAL_NUMBER":"31800","LATITUDE":38.84323,"LONGITUDE":-76.999376,"INSTALLED":"YES","LOCKED":"NO","INSTALL_DATE":null,"REMOVAL_DATE":null,"TEMPORARY_INSTALL":"NO","NUMBER_OF_BIKES":4,"NUMBER_OF_EMPTY_DOCKS":7,"X":400054.17124801,"Y":130603.40760852,"SE_ANNO_CAD_DATA":null,"OWNER":"DC"},"geometry":{"type":"Point","coordinates":[-76.99937827986223,38.84323777687907]}},{"type":"Feature","properties":{"OBJECTID":222375474,"ID":240,"ADDRESS":"Pleasant St & MLK Ave SE","TERMINAL_NUMBER":"31807","LATITUDE":38.863897,"LONGITUDE":-76.990037,"INSTALLED":"YES","LOCKED":"NO","INSTALL_DATE":null,"REMOVAL_DATE":null,"TEMPORARY_INSTALL":"NO","NUMBER_OF_BIKES":2,"NUMBER_OF_EMPTY_DOCKS":8,"X":400864.66651397,"Y":132897.63895866,"SE_ANNO_CAD_DATA":null,"OWNER":"DC"},"geometry":{"type":"Point","coordinates":[-76.99003927839593,38.86390478106032]}},{"type":"Feature","properties":{"OBJECTID":222375475,"ID":241,"ADDRESS":"Neal St & Trinidad Ave NE","TERMINAL_NUMBER":"31512","LATITUDE":38.903732,"LONGITUDE":-76.987211,"INSTALLED":"YES","LOCKED":"NO","INSTALL_DATE":null,"REMOVAL_DATE":null,"TEMPORARY_INSTALL":"NO","NUMBER_OF_BIKES":0,"NUMBER_OF_EMPTY_DOCKS":14,"X":401109.30924373,"Y":137319.66124122,"SE_ANNO_CAD_DATA":null,"OWNER":"DC"},"geometry":{"type":"Point","coordinates":[-76.98721327971005,38.90373978947284]}},{"type":"Feature","properties":{"OBJECTID":222375476,"ID":242,"ADDRESS":"12th & U St NW","TERMINAL_NUMBER":"31268","LATITUDE":38.916787,"LONGITUDE":-77.028139,"INSTALLED":"YES","LOCKED":"NO","INSTALL_DATE":null,"REMOVAL_DATE":null,"TEMPORARY_INSTALL":"NO","NUMBER_OF_BIKES":0,"NUMBER_OF_EMPTY_DOCKS":30,"X":397559.68883751,"Y":138769.17197864,"SE_ANNO_CAD_DATA":null,"OWNER":"DC"},"geometry":{"type":"Point","coordinates":[-77.02814129361464,38.91679479069253]}},{"type":"Feature","properties":{"OBJECTID":222375477,"ID":243,"ADDRESS":"S George Mason Dr & Four Mile Run","TERMINAL_NUMBER":"31063","LATITUDE":38.852247999999996,"LONGITUDE":-77.10502199999999,"INSTALLED":"YES","LOCKED":"NO","INSTALL_DATE":null,"REMOVAL_DATE":null,"TEMPORARY_INSTALL":"NO","NUMBER_OF_BIKES":3,"NUMBER_OF_EMPTY_DOCKS":8,"X":390883.88955688,"Y":131609.71253131,"SE_ANNO_CAD_DATA":null,"OWNER":null},"geometry":{"type":"Point","coordinates":[-77.10502431325101,38.85225577489516]}},{"type":"Feature","properties":{"OBJECTID":222375478,"ID":244,"ADDRESS":"S Stafford & 34th St S","TERMINAL_NUMBER":"31064","LATITUDE":38.834108,"LONGITUDE":-77.087323,"INSTALLED":"YES","LOCKED":"NO","INSTALL_DATE":null,"REMOVAL_DATE":null,"TEMPORARY_INSTALL":"NO","NUMBER_OF_BIKES":4,"NUMBER_OF_EMPTY_DOCKS":7,"X":392418.26989469,"Y":129594.42903651,"SE_ANNO_CAD_DATA":null,"OWNER":null},"geometry":{"type":"Point","coordinates":[-77.08732530692859,38.83411577184713]}},{"type":"Feature","properties":{"OBJECTID":222375479,"ID":245,"ADDRESS":"N Pershing Dr & Wayne St","TERMINAL_NUMBER":"31065","LATITUDE":38.880705,"LONGITUDE":-77.08596,"INSTALLED":"YES","LOCKED":"NO","INSTALL_DATE":null,"REMOVAL_DATE":null,"TEMPORARY_INSTALL":"NO","NUMBER_OF_BIKES":5,"NUMBER_OF_EMPTY_DOCKS":5,"X":392541.48161705,"Y":134766.91705858,"SE_ANNO_CAD_DATA":null,"OWNER":null},"geometry":{"type":"Point","coordinates":[-77.08596230903026,38.88071278110205]}},{"type":"Feature","properties":{"OBJECTID":222375480,"ID":246,"ADDRESS":"Columbia Pike & S Orme St","TERMINAL_NUMBER":"31066","LATITUDE":38.867262,"LONGITUDE":-77.072315,"INSTALLED":"YES","LOCKED":"NO","INSTALL_DATE":null,"REMOVAL_DATE":null,"TEMPORARY_INSTALL":"NO","NUMBER_OF_BIKES":0,"NUMBER_OF_EMPTY_DOCKS":10,"X":393724.23923893,"Y":133273.6172133,"SE_ANNO_CAD_DATA":null,"OWNER":null},"geometry":{"type":"Point","coordinates":[-77.07231730392584,38.86726977863204]}},{"type":"Feature","properties":{"OBJECTID":222375481,"ID":247,"ADDRESS":"3rd St & Pennsylvania Ave SE","TERMINAL_NUMBER":"31269","LATITUDE":38.887378,"LONGITUDE":-77.001955,"INSTALLED":"YES","LOCKED":"NO","INSTALL_DATE":null,"REMOVAL_DATE":null,"TEMPORARY_INSTALL":"NO","NUMBER_OF_BIKES":0,"NUMBER_OF_EMPTY_DOCKS":15,"X":399830.38573816,"Y":135504.16169424,"SE_ANNO_CAD_DATA":null,"OWNER":"DC"},"geometry":{"type":"Point","coordinates":[-77.00195728324017,38.88738578548509]}},{"type":"Feature","properties":{"OBJECTID":222375482,"ID":248,"ADDRESS":"8th & D St NW","TERMINAL_NUMBER":"31270","LATITUDE":38.894850999999996,"LONGITUDE":-77.02324,"INSTALLED":"YES","LOCKED":"NO","INSTALL_DATE":null,"REMOVAL_DATE":null,"TEMPORARY_INSTALL":"NO","NUMBER_OF_BIKES":11,"NUMBER_OF_EMPTY_DOCKS":3,"X":397983.92709424,"Y":136333.97809506,"SE_ANNO_CAD_DATA":null,"OWNER":"DC"},"geometry":{"type":"Point","coordinates":[-77.02324229010601,38.89485878652974]}},{"type":"Feature","properties":{"OBJECTID":222375483,"ID":249,"ADDRESS":"3rd & Elm St NW","TERMINAL_NUMBER":"31118","LATITUDE":38.917622,"LONGITUDE":-77.01597,"INSTALLED":"YES","LOCKED":"NO","INSTALL_DATE":null,"REMOVAL_DATE":null,"TEMPORARY_INSTALL":"NO","NUMBER_OF_BIKES":8,"NUMBER_OF_EMPTY_DOCKS":6,"X":398615.04270249,"Y":138861.60900002,"SE_ANNO_CAD_DATA":null,"OWNER":"DC"},"geometry":{"type":"Point","coordinates":[-77.01597228976036,38.917629791122245]}},{"type":"Feature","properties":{"OBJECTID":222375484,"ID":250,"ADDRESS":"Rhode Island Ave & V St NE","TERMINAL_NUMBER":"31513","LATITUDE":38.918155,"LONGITUDE":-77.004746,"INSTALLED":"YES","LOCKED":"NO","INSTALL_DATE":null,"REMOVAL_DATE":null,"TEMPORARY_INSTALL":"NO","NUMBER_OF_BIKES":8,"NUMBER_OF_EMPTY_DOCKS":11,"X":399588.4183945,"Y":138920.6660217,"SE_ANNO_CAD_DATA":null,"OWNER":"DC"},"geometry":{"type":"Point","coordinates":[-77.00474828634916,38.918162791453]}},{"type":"Feature","properties":{"OBJECTID":222375485,"ID":251,"ADDRESS":"Constitution Ave & 2nd St NW/DOL","TERMINAL_NUMBER":"31271","LATITUDE":38.892275,"LONGITUDE":-77.01391699999999,"INSTALLED":"YES","LOCKED":"NO","INSTALL_DATE":null,"REMOVAL_DATE":null,"TEMPORARY_INSTALL":"NO","NUMBER_OF_BIKES":25,"NUMBER_OF_EMPTY_DOCKS":1,"X":398792.6549073,"Y":136047.85718073,"SE_ANNO_CAD_DATA":null,"OWNER":"DC"},"geometry":{"type":"Point","coordinates":[-77.01391928705218,38.89228278614899]}},{"type":"Feature","properties":{"OBJECTID":222375486,"ID":252,"ADDRESS":"Washington & Independence Ave SW/HHS","TERMINAL_NUMBER":"31272","LATITUDE":38.886978,"LONGITUDE":-77.013769,"INSTALLED":"YES","LOCKED":"NO","INSTALL_DATE":null,"REMOVAL_DATE":null,"TEMPORARY_INSTALL":"NO","NUMBER_OF_BIKES":28,"NUMBER_OF_EMPTY_DOCKS":2,"X":398805.40570038,"Y":135459.84686256,"SE_ANNO_CAD_DATA":null,"OWNER":"DC"},"geometry":{"type":"Point","coordinates":[-77.01377128717947,38.88698578513704]}},{"type":"Feature","properties":{"OBJECTID":222375487,"ID":253,"ADDRESS":"Independence Ave & L'Enfant Plaza SW/DOE","TERMINAL_NUMBER":"31633","LATITUDE":38.887312,"LONGITUDE":-77.025762,"INSTALLED":"YES","LOCKED":"NO","INSTALL_DATE":null,"REMOVAL_DATE":null,"TEMPORARY_INSTALL":"NO","NUMBER_OF_BIKES":14,"NUMBER_OF_EMPTY_DOCKS":0,"X":397764.90711108,"Y":135497.14874174,"SE_ANNO_CAD_DATA":null,"OWNER":"DC"},"geometry":{"type":"Point","coordinates":[-77.02576429062518,38.88731978471983]}},{"type":"Feature","properties":{"OBJECTID":222375488,"ID":254,"ADDRESS":"Hamlin & 7th St NE","TERMINAL_NUMBER":"31514","LATITUDE":38.927496999999995,"LONGITUDE":-76.997194,"INSTALLED":"YES","LOCKED":"NO","INSTALL_DATE":null,"REMOVAL_DATE":null,"TEMPORARY_INSTALL":"NO","NUMBER_OF_BIKES":0,"NUMBER_OF_EMPTY_DOCKS":14,"X":400243.30946072,"Y":139957.7002703,"SE_ANNO_CAD_DATA":null,"OWNER":"DC"},"geometry":{"type":"Point","coordinates":[-76.99719628461074,38.92750479363031]}},{"type":"Feature","properties":{"OBJECTID":222375489,"ID":255,"ADDRESS":"Columbia Pike & S Walter Reed Dr","TERMINAL_NUMBER":"31067","LATITUDE":38.862477999999996,"LONGITUDE":-77.08659899999999,"INSTALLED":"YES","LOCKED":"NO","INSTALL_DATE":null,"REMOVAL_DATE":null,"TEMPORARY_INSTALL":"NO","NUMBER_OF_BIKES":5,"NUMBER_OF_EMPTY_DOCKS":7,"X":392484.11792553,"Y":132743.63730167,"SE_ANNO_CAD_DATA":null,"OWNER":null},"geometry":{"type":"Point","coordinates":[-77.08660130806936,38.862485777463704]}},{"type":"Feature","properties":{"OBJECTID":222375490,"ID":256,"ADDRESS":"Columbia Pike & S Dinwiddie St / Arlington Mill Community Center","TERMINAL_NUMBER":"31068","LATITUDE":38.856319,"LONGITUDE":-77.11153,"INSTALLED":"YES","LOCKED":"NO","INSTALL_DATE":null,"REMOVAL_DATE":null,"TEMPORARY_INSTALL":"NO","NUMBER_OF_BIKES":11,"NUMBER_OF_EMPTY_DOCKS":3,"X":390319.53509636,"Y":132062.29229881,"SE_ANNO_CAD_DATA":null,"OWNER":null},"geometry":{"type":"Point","coordinates":[-77.11153231525913,38.85632677531622]}},{"type":"Feature","properties":{"OBJECTID":222375491,"ID":257,"ADDRESS":"Pershing & N George Mason Dr","TERMINAL_NUMBER":"31069","LATITUDE":38.871822,"LONGITUDE":-77.107906,"INSTALLED":"YES","LOCKED":"NO","INSTALL_DATE":null,"REMOVAL_DATE":null,"TEMPORARY_INSTALL":"NO","NUMBER_OF_BIKES":0,"NUMBER_OF_EMPTY_DOCKS":11,"X":390636.1213437,"Y":133782.8595827,"SE_ANNO_CAD_DATA":null,"OWNER":null},"geometry":{"type":"Point","coordinates":[-77.107908315768,38.87182977827301]}},{"type":"Feature","properties":{"OBJECTID":222375492,"ID":258,"ADDRESS":"Fenton St & New York Ave","TERMINAL_NUMBER":"32001","LATITUDE":38.985403999999996,"LONGITUDE":-77.023082,"INSTALLED":"YES","LOCKED":"NO","INSTALL_DATE":null,"REMOVAL_DATE":null,"TEMPORARY_INSTALL":"NO","NUMBER_OF_BIKES":12,"NUMBER_OF_EMPTY_DOCKS":3,"X":398000.17527578,"Y":146386.15892257,"SE_ANNO_CAD_DATA":null,"OWNER":null},"geometry":{"type":"Point","coordinates":[-77.023084296252,38.98541180464363]}},{"type":"Feature","properties":{"OBJECTID":222375493,"ID":259,"ADDRESS":"Bethesda Ave & Arlington Rd","TERMINAL_NUMBER":"32002","LATITUDE":38.981103,"LONGITUDE":-77.097426,"INSTALLED":"YES","LOCKED":"NO","INSTALL_DATE":null,"REMOVAL_DATE":null,"TEMPORARY_INSTALL":"NO","NUMBER_OF_BIKES":6,"NUMBER_OF_EMPTY_DOCKS":13,"X":391558.50228853,"Y":145912.95751583,"SE_ANNO_CAD_DATA":null,"OWNER":null},"geometry":{"type":"Point","coordinates":[-77.09742831857139,38.98111080071853]}},{"type":"Feature","properties":{"OBJECTID":222375494,"ID":260,"ADDRESS":"Montgomery Ave & Waverly St","TERMINAL_NUMBER":"32003","LATITUDE":38.983838,"LONGITUDE":-77.09221,"INSTALLED":"YES","LOCKED":"NO","INSTALL_DATE":null,"REMOVAL_DATE":null,"TEMPORARY_INSTALL":"NO","NUMBER_OF_BIKES":0,"NUMBER_OF_EMPTY_DOCKS":11,"X":392010.75030162,"Y":146216.09966891,"SE_ANNO_CAD_DATA":null,"OWNER":null},"geometry":{"type":"Point","coordinates":[-77.09221231726664,38.983845801774194]}},{"type":"Feature","properties":{"OBJECTID":222375495,"ID":261,"ADDRESS":"Fallsgrove Blvd & Fallsgrove Dr","TERMINAL_NUMBER":"32004","LATITUDE":39.096312,"LONGITUDE":-77.192672,"INSTALLED":"YES","LOCKED":"NO","INSTALL_DATE":null,"REMOVAL_DATE":null,"TEMPORARY_INSTALL":"NO","NUMBER_OF_BIKES":13,"NUMBER_OF_EMPTY_DOCKS":6,"X":383332.89363763,"Y":158715.52157619,"SE_ANNO_CAD_DATA":null,"OWNER":null},"geometry":{"type":"Point","coordinates":[-77.1926743557834,39.096319820296024]}},{"type":"Feature","properties":{"OBJECTID":222375496,"ID":262,"ADDRESS":"Traville Gateway Dr & Gudelsky Dr","TERMINAL_NUMBER":"32005","LATITUDE":39.093782999999995,"LONGITUDE":-77.202501,"INSTALLED":"YES","LOCKED":"NO","INSTALL_DATE":null,"REMOVAL_DATE":null,"TEMPORARY_INSTALL":"NO","NUMBER_OF_BIKES":7,"NUMBER_OF_EMPTY_DOCKS":12,"X":382482.01381244,"Y":158436.61187288,"SE_ANNO_CAD_DATA":null,"OWNER":null},"geometry":{"type":"Point","coordinates":[-77.20250335854165,39.093790819560645]}},{"type":"Feature","properties":{"OBJECTID":222375497,"ID":438,"ADDRESS":"Reston Town Center Transit Station","TERMINAL_NUMBER":"32214","LATITUDE":38.957037,"LONGITUDE":-77.359718,"INSTALLED":"YES","LOCKED":"NO","INSTALL_DATE":null,"REMOVAL_DATE":null,"TEMPORARY_INSTALL":"NO","NUMBER_OF_BIKES":14,"NUMBER_OF_EMPTY_DOCKS":2,"X":368821.70051475,"Y":143298.32745781,"SE_ANNO_CAD_DATA":null,"OWNER":null},"geometry":{"type":"Point","coordinates":[-77.35972039915302,38.957044785968534]}},{"type":"Feature","properties":{"OBJECTID":222375498,"ID":439,"ADDRESS":"1st & D St SE","TERMINAL_NUMBER":"31643","LATITUDE":38.884916,"LONGITUDE":-77.005965,"INSTALLED":"YES","LOCKED":"NO","INSTALL_DATE":null,"REMOVAL_DATE":null,"TEMPORARY_INSTALL":"NO","NUMBER_OF_BIKES":14,"NUMBER_OF_EMPTY_DOCKS":5,"X":399482.46343538,"Y":135230.87572136,"SE_ANNO_CAD_DATA":null,"OWNER":"DC"},"geometry":{"type":"Point","coordinates":[-77.00596728445085,38.88492378515779]}},{"type":"Feature","properties":{"OBJECTID":222375499,"ID":440,"ADDRESS":"Reston Station","TERMINAL_NUMBER":"32215","LATITUDE":38.948363,"LONGITUDE":-77.33811899999999,"INSTALLED":"YES","LOCKED":"NO","INSTALL_DATE":null,"REMOVAL_DATE":null,"TEMPORARY_INSTALL":"NO","NUMBER_OF_BIKES":1,"NUMBER_OF_EMPTY_DOCKS":33,"X":370690.20310024,"Y":142328.28566882,"SE_ANNO_CAD_DATA":null,"OWNER":null},"geometry":{"type":"Point","coordinates":[-77.33812139144553,38.94837078539297]}},{"type":"Feature","properties":{"OBJECTID":222375500,"ID":441,"ADDRESS":"Library St & Freedom Dr","TERMINAL_NUMBER":"32216","LATITUDE":38.959633,"LONGITUDE":-77.358741,"INSTALLED":"YES","LOCKED":"NO","INSTALL_DATE":null,"REMOVAL_DATE":null,"TEMPORARY_INSTALL":"NO","NUMBER_OF_BIKES":7,"NUMBER_OF_EMPTY_DOCKS":8,"X":368907.51332443,"Y":143586.17197497,"SE_ANNO_CAD_DATA":null,"OWNER":null},"geometry":{"type":"Point","coordinates":[-77.3587433989796,38.959640786935644]}},{"type":"Feature","properties":{"OBJECTID":222375501,"ID":442,"ADDRESS":"Sunset Hills Rd & Discovery Square","TERMINAL_NUMBER":"32217","LATITUDE":38.95534,"LONGITUDE":-77.35761099999999,"INSTALLED":"YES","LOCKED":"NO","INSTALL_DATE":null,"REMOVAL_DATE":null,"TEMPORARY_INSTALL":"NO","NUMBER_OF_BIKES":5,"NUMBER_OF_EMPTY_DOCKS":10,"X":369003.58432792,"Y":143109.22880515,"SE_ANNO_CAD_DATA":null,"OWNER":null},"geometry":{"type":"Point","coordinates":[-77.3576133984017,38.9553477859561]}},{"type":"Feature","properties":{"OBJECTID":222375502,"ID":443,"ADDRESS":"22nd St & Constitution Ave NW","TERMINAL_NUMBER":"31292","LATITUDE":38.892441,"LONGITUDE":-77.048947,"INSTALLED":"YES","LOCKED":"NO","INSTALL_DATE":null,"REMOVAL_DATE":null,"TEMPORARY_INSTALL":"NO","NUMBER_OF_BIKES":19,"NUMBER_OF_EMPTY_DOCKS":2,"X":395753.69834411,"Y":136067.33084543,"SE_ANNO_CAD_DATA":null,"OWNER":"DC"},"geometry":{"type":"Point","coordinates":[-77.04894929796147,38.89244878508172]}},{"type":"Feature","properties":{"OBJECTID":222375521,"ID":462,"ADDRESS":"Wheaton Metro/Georgia Ave & Reedie Dr","TERMINAL_NUMBER":"32062","LATITUDE":39.038340999999996,"LONGITUDE":-77.051023,"INSTALLED":"YES","LOCKED":"NO","INSTALL_DATE":null,"REMOVAL_DATE":null,"TEMPORARY_INSTALL":"NO","NUMBER_OF_BIKES":2,"NUMBER_OF_EMPTY_DOCKS":17,"X":395582.65145222,"Y":152263.70107898,"SE_ANNO_CAD_DATA":null,"OWNER":null},"geometry":{"type":"Point","coordinates":[-77.05102530808647,39.0383488139607]}},{"type":"Feature","properties":{"OBJECTID":222375522,"ID":463,"ADDRESS":"Amherst Ave & Elkins St","TERMINAL_NUMBER":"32063","LATITUDE":39.044886999999996,"LONGITUDE":-77.047788,"INSTALLED":"YES","LOCKED":"NO","INSTALL_DATE":null,"REMOVAL_DATE":null,"TEMPORARY_INSTALL":"NO","NUMBER_OF_BIKES":5,"NUMBER_OF_EMPTY_DOCKS":10,"X":395863.10400444,"Y":152990.22852961,"SE_ANNO_CAD_DATA":null,"OWNER":null},"geometry":{"type":"Point","coordinates":[-77.047790307363,39.044894815279235]}},{"type":"Feature","properties":{"OBJECTID":222375523,"ID":464,"ADDRESS":"Amherst Ave & Prichard Rd","TERMINAL_NUMBER":"32064","LATITUDE":39.035965,"LONGITUDE":-77.048395,"INSTALLED":"YES","LOCKED":"NO","INSTALL_DATE":null,"REMOVAL_DATE":null,"TEMPORARY_INSTALL":"NO","NUMBER_OF_BIKES":6,"NUMBER_OF_EMPTY_DOCKS":9,"X":395810.0323662,"Y":151999.81494344,"SE_ANNO_CAD_DATA":null,"OWNER":null},"geometry":{"type":"Point","coordinates":[-77.04839730684952,39.0359728136767]}},{"type":"Feature","properties":{"OBJECTID":222375524,"ID":465,"ADDRESS":"Grandview & Blueridge Ave","TERMINAL_NUMBER":"32065","LATITUDE":39.043272,"LONGITUDE":-77.053085,"INSTALLED":"YES","LOCKED":"NO","INSTALL_DATE":null,"REMOVAL_DATE":null,"TEMPORARY_INSTALL":"NO","NUMBER_OF_BIKES":6,"NUMBER_OF_EMPTY_DOCKS":9,"X":395404.45083084,"Y":152811.19876663,"SE_ANNO_CAD_DATA":null,"OWNER":null},"geometry":{"type":"Point","coordinates":[-77.05308730907487,39.04327981487296]}},{"type":"Feature","properties":{"OBJECTID":222375525,"ID":466,"ADDRESS":"Windham Ln & Amherst Ave","TERMINAL_NUMBER":"32066","LATITUDE":39.032029,"LONGITUDE":-77.04735,"INSTALLED":"YES","LOCKED":"NO","INSTALL_DATE":null,"REMOVAL_DATE":null,"TEMPORARY_INSTALL":"NO","NUMBER_OF_BIKES":8,"NUMBER_OF_EMPTY_DOCKS":7,"X":395900.28028089,"Y":151562.82832343,"SE_ANNO_CAD_DATA":null,"OWNER":null},"geometry":{"type":"Point","coordinates":[-77.04735230673977,39.03203681287975]}},{"type":"Feature","properties":{"OBJECTID":222375526,"ID":467,"ADDRESS":"North Shore Dr & Village Rd","TERMINAL_NUMBER":"32223","LATITUDE":38.970411999999996,"LONGITUDE":-77.34078699999999,"INSTALLED":"YES","LOCKED":"NO","INSTALL_DATE":null,"REMOVAL_DATE":null,"TEMPORARY_INSTALL":"NO","NUMBER_OF_BIKES":8,"NUMBER_OF_EMPTY_DOCKS":3,"X":370468.0661928,"Y":144776.77171083,"SE_ANNO_CAD_DATA":null,"OWNER":null},"geometry":{"type":"Point","coordinates":[-77.34078939398587,38.97041978934476]}},{"type":"Feature","properties":{"OBJECTID":222375527,"ID":468,"ADDRESS":"Town Center Pkwy & Sunset Hills Rd","TERMINAL_NUMBER":"32224","LATITUDE":38.955171,"LONGITUDE":-77.36309399999999,"INSTALLED":"YES","LOCKED":"NO","INSTALL_DATE":null,"REMOVAL_DATE":null,"TEMPORARY_INSTALL":"NO","NUMBER_OF_BIKES":10,"NUMBER_OF_EMPTY_DOCKS":1,"X":368528.26577752,"Y":143092.3443935,"SE_ANNO_CAD_DATA":null,"OWNER":null},"geometry":{"type":"Point","coordinates":[-77.3630964002345,38.9551787854817]}},{"type":"Feature","properties":{"OBJECTID":222375528,"ID":469,"ADDRESS":"3rd & Underwood St NW","TERMINAL_NUMBER":"31413","LATITUDE":38.968834,"LONGITUDE":-77.016258,"INSTALLED":"YES","LOCKED":"NO","INSTALL_DATE":null,"REMOVAL_DATE":null,"TEMPORARY_INSTALL":"NO","NUMBER_OF_BIKES":6,"NUMBER_OF_EMPTY_DOCKS":12,"X":398591.07910767,"Y":144546.60165408,"SE_ANNO_CAD_DATA":null,"OWNER":"DC"},"geometry":{"type":"Point","coordinates":[-77.01626029261188,38.96884180116693]}},{"type":"Feature","properties":{"OBJECTID":222375529,"ID":470,"ADDRESS":"18th & Monroe St NE","TERMINAL_NUMBER":"31521","LATITUDE":38.93293,"LONGITUDE":-76.979517,"INSTALLED":"YES","LOCKED":"NO","INSTALL_DATE":null,"REMOVAL_DATE":null,"TEMPORARY_INSTALL":"NO","NUMBER_OF_BIKES":17,"NUMBER_OF_EMPTY_DOCKS":2,"X":401775.95435655,"Y":140561.00567055,"SE_ANNO_CAD_DATA":null,"OWNER":"DC"},"geometry":{"type":"Point","coordinates":[-76.97951927895559,38.93293779571991]}},{"type":"Feature","properties":{"OBJECTID":222375530,"ID":471,"ADDRESS":"7th & E St SW","TERMINAL_NUMBER":"31294","LATITUDE":38.883449999999996,"LONGITUDE":-77.02174099999999,"INSTALLED":"YES","LOCKED":"NO","INSTALL_DATE":null,"REMOVAL_DATE":null,"TEMPORARY_INSTALL":"NO","NUMBER_OF_BIKES":9,"NUMBER_OF_EMPTY_DOCKS":9,"X":398113.66411757,"Y":135068.34613835,"SE_ANNO_CAD_DATA":null,"OWNER":"DC"},"geometry":{"type":"Point","coordinates":[-77.02174328921234,38.883457783895906]}},{"type":"Feature","properties":{"OBJECTID":222375531,"ID":472,"ADDRESS":"Shady Grove Metro East","TERMINAL_NUMBER":"32067","LATITUDE":39.121327,"LONGITUDE":-77.164969,"INSTALLED":"YES","LOCKED":"NO","INSTALL_DATE":null,"REMOVAL_DATE":null,"TEMPORARY_INSTALL":"NO","NUMBER_OF_BIKES":10,"NUMBER_OF_EMPTY_DOCKS":9,"X":385734.35932116,"Y":161487.81062324,"SE_ANNO_CAD_DATA":null,"OWNER":null},"geometry":{"type":"Point","coordinates":[-77.16497134866158,39.12133482649551]}},{"type":"Feature","properties":{"OBJECTID":222375532,"ID":473,"ADDRESS":"Potomac & M St NW","TERMINAL_NUMBER":"31295","LATITUDE":38.905367999999996,"LONGITUDE":-77.06514899999999,"INSTALLED":"YES","LOCKED":"NO","INSTALL_DATE":null,"REMOVAL_DATE":null,"TEMPORARY_INSTALL":"NO","NUMBER_OF_BIKES":10,"NUMBER_OF_EMPTY_DOCKS":9,"X":394349.14970107,"Y":137503.20919441,"SE_ANNO_CAD_DATA":null,"OWNER":"DC"},"geometry":{"type":"Point","coordinates":[-77.06515130430819,38.90537578675437]}},{"type":"Feature","properties":{"OBJECTID":222375533,"ID":474,"ADDRESS":"Columbia & Ontario Rd NW","TERMINAL_NUMBER":"31296","LATITUDE":38.924088,"LONGITUDE":-77.040787,"INSTALLED":"YES","LOCKED":"NO","INSTALL_DATE":null,"REMOVAL_DATE":null,"TEMPORARY_INSTALL":"NO","NUMBER_OF_BIKES":0,"NUMBER_OF_EMPTY_DOCKS":23,"X":396463.17281514,"Y":139580.05853158,"SE_ANNO_CAD_DATA":null,"OWNER":"DC"},"geometry":{"type":"Point","coordinates":[-77.04078929774218,38.92409579177801]}},{"type":"Feature","properties":{"OBJECTID":222375534,"ID":475,"ADDRESS":"Washington-Lee High School / N Stafford St & Generals Way","TERMINAL_NUMBER":"31920","LATITUDE":38.888282,"LONGITUDE":-77.111066,"INSTALLED":"YES","LOCKED":"NO","INSTALL_DATE":null,"REMOVAL_DATE":null,"TEMPORARY_INSTALL":"NO","NUMBER_OF_BIKES":8,"NUMBER_OF_EMPTY_DOCKS":6,"X":390364.12569347,"Y":135610.37264375,"SE_ANNO_CAD_DATA":null,"OWNER":null},"geometry":{"type":"Point","coordinates":[-77.11106831746766,38.88828978148744]}},{"type":"Feature","properties":{"OBJECTID":222375535,"ID":476,"ADDRESS":"Westover Library / Washington Blvd & N McKinley Rd","TERMINAL_NUMBER":"31921","LATITUDE":38.886047999999995,"LONGITUDE":-77.14231699999999,"INSTALLED":"YES","LOCKED":"NO","INSTALL_DATE":null,"REMOVAL_DATE":null,"TEMPORARY_INSTALL":"NO","NUMBER_OF_BIKES":8,"NUMBER_OF_EMPTY_DOCKS":7,"X":387652.46388519,"Y":135366.14435057,"SE_ANNO_CAD_DATA":null,"OWNER":null},"geometry":{"type":"Point","coordinates":[-77.14231932710514,38.886055780257045]}},